{"type":"FeatureCollection","features":[{"type":"Feature","geometry":{"type":"Point","coordinates":[-58.5239181,-34.6546864]},"properties":{"id":1921,"nombreusuario":"An\u00f3nimo","precio":80,"nombre":"La vaca blanca","fecha":"2016-02-06 11:22:30","corte":1,"descripcion":"Asado","calle":"Trenque Lauquen, Buenos Aires, Ciudad Aut\u00f3noma de Buenos Aires","y":-34.6546864,"x":-58.5239181,"precio_ant":70,"cant_calificaciones":0,"promedio":0}},{"type":"Feature","geometry":{"type":"Point","coordinates":[-58.6345857,-34.6815908]},"properties":{"id":1145,"nombreusuario":"An\u00f3nimo","precio":88,"nombre":"FAMADI","fecha":"2016-02-05 19:59:50","corte":1,"descripcion":"Asado","calle":"Avenida Eva Per\u00f3n 2994, Mor\u00f3n, Buenos Aires","y":-34.6815908,"x":-58.6345857,"precio_ant":88,"cant_calificaciones":0,"promedio":0}},{"type":"Feature","geometry":{"type":"Point","coordinates":[-58.6345857,-34.6815908]},"properties":{"id":1145,"nombreusuario":"An\u00f3nimo","precio":88,"nombre":"FAMADI","fecha":"2016-02-05 19:59:50","corte":1,"descripcion":"Asado","calle":"Avenida Eva Per\u00f3n 2994, Mor\u00f3n, Buenos Aires","y":-34.6815908,"x":-58.6345857,"precio_ant":90,"cant_calificaciones":0,"promedio":0}},{"type":"Feature","geometry":{"type":"Point","coordinates":[-58.573531666667,-34.64093]},"properties":{"id":1878,"nombreusuario":"An\u00f3nimo","precio":100,"nombre":"Disco","fecha":"2016-02-06 11:12:55","corte":1,"descripcion":"Asado","calle":"av rivadavia 12000 ramos mejia","y":-34.64093,"x":-58.573531666667,"precio_ant":100,"cant_calificaciones":0,"promedio":0}},{"type":"Feature","geometry":{"type":"Point","coordinates":[-58.573531666667,-34.64093]},"properties":{"id":1878,"nombreusuario":"An\u00f3nimo","precio":100,"nombre":"Disco","fecha":"2016-02-06 11:12:55","corte":1,"descripcion":"Asado","calle":"av rivadavia 12000 ramos mejia","y":-34.64093,"x":-58.573531666667,"precio_ant":90,"cant_calificaciones":0,"promedio":0}},{"type":"Feature","geometry":{"type":"Point","coordinates":[-58.6345857,-34.6815908]},"properties":{"id":1145,"nombreusuario":"An\u00f3nimo","precio":88,"nombre":"FAMADI","fecha":"2016-02-05 19:59:50","corte":1,"descripcion":"Asado","calle":"Avenida Eva Per\u00f3n 2994, Mor\u00f3n, Buenos Aires","y":-34.6815908,"x":-58.6345857,"precio_ant":88,"cant_calificaciones":0,"promedio":0}},{"type":"Feature","geometry":{"type":"Point","coordinates":[-58.6345857,-34.6815908]},"properties":{"id":1145,"nombreusuario":"An\u00f3nimo","precio":88,"nombre":"FAMADI","fecha":"2016-02-05 19:59:50","corte":1,"descripcion":"Asado","calle":"Avenida Eva Per\u00f3n 2994, Mor\u00f3n, Buenos Aires","y":-34.6815908,"x":-58.6345857,"precio_ant":100,"cant_calificaciones":0,"promedio":0}},{"type":"Feature","geometry":{"type":"Point","coordinates":[-58.55785,-34.61631]},"properties":{"id":1057,"nombreusuario":"An\u00f3nimo","precio":90,"nombre":"Milagros","fecha":"2016-02-05 17:31:36","corte":1,"descripcion":"Asado","calle":"Lisandro de la Torre 3526-3542, B1678FLT Caseros, Buenos Aires, Argentina","y":-34.61631,"x":-58.55785,"precio_ant":90,"cant_calificaciones":1,"promedio":2}},{"type":"Feature","geometry":{"type":"Point","coordinates":[-58.52953,-34.61105]},"properties":{"id":1569,"nombreusuario":"An\u00f3nimo","precio":119,"nombre":"Todo Carnes","fecha":"2016-02-06 00:04:43","corte":1,"descripcion":"Asado","calle":"Av. Lope de Vega 2225-2229, B1675AOC Villa Raffo, Buenos Aires, Argentina","y":-34.61105,"x":-58.52953,"precio_ant":119,"cant_calificaciones":0,"promedio":0}},{"type":"Feature","geometry":{"type":"Point","coordinates":[-58.5792725,-34.560971]},"properties":{"id":840,"nombreusuario":"admin@smapache.com.ar","precio":111,"nombre":"Bodoque","fecha":"2016-02-09 13:35:49","corte":1,"descripcion":"Asado","calle":"Cuba 5400-5500, Villa Ballester, Buenos Aires, Argentina","y":-34.560971,"x":-58.5792725,"precio_ant":110,"cant_calificaciones":0,"promedio":0}},{"type":"Feature","geometry":{"type":"Point","coordinates":[-58.39484,-34.651495]},"properties":{"id":563,"nombreusuario":"damdam","precio":98,"nombre":"Super chino","fecha":"2016-02-09 14:04:17","corte":1,"descripcion":"Asado","calle":"Av. Gral. Iriarte 3326-3374, Cdad. Aut\u00f3noma de Buenos Aires, Argentina","y":-34.651495,"x":-58.39484,"precio_ant":99,"cant_calificaciones":0,"promedio":0}},{"type":"Feature","geometry":{"type":"Point","coordinates":[-58.4018018,-34.6098962]},"properties":{"id":1018,"nombreusuario":"damdam","precio":57,"nombre":"Los Hermanos","fecha":"2016-02-09 17:53:06","corte":1,"descripcion":"Asado","calle":"Av Rivadavia 2500, Buenos Aires, Ciudad Aut\u00f3noma de Buenos Aires","y":-34.6098962,"x":-58.4018018,"precio_ant":58,"cant_calificaciones":0,"promedio":0}},{"type":"Feature","geometry":{"type":"Point","coordinates":[-57.54602,-38.0424]},"properties":{"id":427,"nombreusuario":"Ale","precio":70,"nombre":"Raffe","fecha":"2016-02-09 19:05:52","corte":1,"descripcion":"Asado","calle":"Bermejo 301-399, B7603BQG Mar del Plata, Buenos Aires, Argentina","y":-38.0424,"x":-57.54602,"precio_ant":70,"cant_calificaciones":0,"promedio":0}},{"type":"Feature","geometry":{"type":"Point","coordinates":[-57.5562349,-38.0510476]},"properties":{"id":1844,"nombreusuario":"Ale","precio":70,"nombre":"Raffe","fecha":"2016-02-09 19:06:13","corte":1,"descripcion":"Asado","calle":"Bermejo, Mar del Plata, Buenos Aires","y":-38.0510476,"x":-57.5562349,"precio_ant":70,"cant_calificaciones":0,"promedio":0}},{"type":"Feature","geometry":{"type":"Point","coordinates":[-57.5683928,-38.0418798]},"properties":{"id":1855,"nombreusuario":"Ale","precio":70,"nombre":"Raffe","fecha":"2016-02-09 19:06:51","corte":1,"descripcion":"Asado","calle":"Cerrito, Mar del Plata, Buenos Aires","y":-38.0418798,"x":-57.5683928,"precio_ant":69,"cant_calificaciones":0,"promedio":0}},{"type":"Feature","geometry":{"type":"Point","coordinates":[-58.54881,-34.62982]},"properties":{"id":467,"nombreusuario":"martin","precio":109,"nombre":"COTO Ciudadela","fecha":"2016-02-09 19:35:24","corte":1,"descripcion":"Asado","calle":"Colectora Norte Acceso Oeste, Ciudadela, Buenos Aires, Argentina","y":-34.62982,"x":-58.54881,"precio_ant":59,"cant_calificaciones":0,"promedio":0}},{"type":"Feature","geometry":{"type":"Point","coordinates":[-58.683393,-34.6848775]},"properties":{"id":2633,"nombreusuario":"priscilla","precio":90,"nombre":"Frigorifico ARENAS","fecha":"2016-02-09 19:43:07","corte":1,"descripcion":"Asado","calle":"Av. Eva Per\u00f3n 3393, San Antonio de Padua, Buenos Aires","y":-34.6848775,"x":-58.683393,"precio_ant":90,"cant_calificaciones":0,"promedio":0}},{"type":"Feature","geometry":{"type":"Point","coordinates":[-58.69909125,-34.6886575]},"properties":{"id":687,"nombreusuario":"priscilla","precio":100,"nombre":"El chavo","fecha":"2016-02-09 19:43:51","corte":1,"descripcion":"Asado","calle":"Alberto Echag\u00fce 1957-1999, Libertad, Buenos Aires, Argentina","y":-34.6886575,"x":-58.69909125,"precio_ant":100,"cant_calificaciones":0,"promedio":0}},{"type":"Feature","geometry":{"type":"Point","coordinates":[-58.50829,-34.54981]},"properties":{"id":805,"nombreusuario":"Jorge","precio":120,"nombre":"Carniceria Ideal","fecha":"2016-02-09 19:44:24","corte":1,"descripcion":"Asado","calle":"Francisco Narciso de Laprida 4123, B1603AAU Vicente L\u00f3pez, Cdad. Aut\u00f3noma de Buenos Aires, Argentina","y":-34.54981,"x":-58.50829,"precio_ant":120,"cant_calificaciones":0,"promedio":0}},{"type":"Feature","geometry":{"type":"Point","coordinates":[-58.385308126367,-34.629106648912]},"properties":{"id":643,"nombreusuario":"Fernando","precio":70,"nombre":"Mercado constitucion","fecha":"2016-02-09 20:05:09","corte":1,"descripcion":"Asado","calle":"Santiago del estero, 1762,  CABA, Argentina","y":-34.629106648912,"x":-58.385308126367,"precio_ant":70,"cant_calificaciones":0,"promedio":0}},{"type":"Feature","geometry":{"type":"Point","coordinates":[-57.9220795,-34.9354752]},"properties":{"id":1315,"nombreusuario":"elcubomagico","precio":89,"nombre":"7 y 78","fecha":"2016-02-09 22:11:46","corte":1,"descripcion":"Asado","calle":"Avenida 7 2249, Villa Elvira, Buenos Aires","y":-34.9354752,"x":-57.9220795,"precio_ant":89,"cant_calificaciones":0,"promedio":0}},{"type":"Feature","geometry":{"type":"Point","coordinates":[-58.443955443799,-34.562858194113]},"properties":{"id":602,"nombreusuario":"damdam","precio":130,"nombre":"Chino","fecha":"2016-02-09 22:12:47","corte":1,"descripcion":"Asado","calle":"Virrey Loreto 1613, Cdad. Aut\u00f3noma de Buenos Aires, Argentina","y":-34.562858194113,"x":-58.443955443799,"precio_ant":130,"cant_calificaciones":0,"promedio":0}},{"type":"Feature","geometry":{"type":"Point","coordinates":[-58.421464,-34.606178]},"properties":{"id":13,"nombreusuario":"ciclon","precio":85,"nombre":"Assalam","fecha":"2016-02-10 02:34:10","corte":1,"descripcion":"Asado","calle":"Avenida Medrano 394, Buenos Aires, Ciudad Aut\u00f3noma de Buenos Aires","y":-34.606178,"x":-58.421464,"precio_ant":85,"cant_calificaciones":0,"promedio":0}},{"type":"Feature","geometry":{"type":"Point","coordinates":[-68.83915,-32.86999]},"properties":{"id":1934,"nombreusuario":"anonimo","precio":99,"nombre":"Ke Karne","fecha":"2016-02-10 03:32:59","corte":1,"descripcion":"Asado","calle":"Av. Bartolom\u00e9 Mitre 2907, M5500BPK Mendoza, Mendoza, Argentina","y":-32.86999,"x":-68.83915,"precio_ant":99,"cant_calificaciones":0,"promedio":0}},{"type":"Feature","geometry":{"type":"Point","coordinates":[-58.2899011,-34.7531047]},"properties":{"id":18,"nombreusuario":"ezefranco","precio":130,"nombre":"M\u00e1quina (Gral. Mosconi 2535)","fecha":"2016-02-10 10:49:48","corte":1,"descripcion":"Asado","calle":"Av. Gral. Mosconi 2535, Quilmes Oeste, Buenos Aires","y":-34.7531047,"x":-58.2899011,"precio_ant":130,"cant_calificaciones":0,"promedio":0}},{"type":"Feature","geometry":{"type":"Point","coordinates":[-67.92404,-34.82411]},"properties":{"id":1557,"nombreusuario":"aldosan","precio":0,"nombre":"El Ruli","fecha":"2016-02-10 13:05:13","corte":1,"descripcion":"Asado","calle":"RN143, Mendoza, Argentina","y":-34.82411,"x":-67.92404,"precio_ant":0,"cant_calificaciones":0,"promedio":0}},{"type":"Feature","geometry":{"type":"Point","coordinates":[-67.91881,-34.82643]},"properties":{"id":1555,"nombreusuario":"aldosan","precio":0,"nombre":"Liax3","fecha":"2016-02-10 13:05:34","corte":1,"descripcion":"Asado","calle":"RN143, Mendoza, Argentina","y":-34.82643,"x":-67.91881,"precio_ant":120,"cant_calificaciones":0,"promedio":0}},{"type":"Feature","geometry":{"type":"Point","coordinates":[-58.7958859,-34.6561493]},"properties":{"id":2324,"nombreusuario":"An\u00f3nimo","precio":90,"nombre":"El paso","fecha":"2016-02-06 17:22:36","corte":1,"descripcion":"Asado","calle":"Juan Mart\u00edn de Pueyrred\u00f3n 2800-2898, B1744INV Moreno, Buenos Aires, Argentina","y":-34.6561493,"x":-58.7958859,"precio_ant":90,"cant_calificaciones":0,"promedio":0}},{"type":"Feature","geometry":{"type":"Point","coordinates":[-58.5735443,-34.6326555]},"properties":{"id":2498,"nombreusuario":"damdam","precio":280,"nombre":"El amanecer","fecha":"2016-02-10 13:35:28","corte":1,"descripcion":"Asado","calle":"3 de Febrero 1350, Villa Sarmiento, Buenos Aires","y":-34.6326555,"x":-58.5735443,"precio_ant":280,"cant_calificaciones":1,"promedio":5}},{"type":"Feature","geometry":{"type":"Point","coordinates":[-58.5666772,-34.6223175]},"properties":{"id":434,"nombreusuario":"damdam","precio":70,"nombre":"","fecha":"2016-02-10 13:35:43","corte":1,"descripcion":"Asado","calle":"Carhu\u00e9, Buenos Aires","y":-34.6223175,"x":-58.5666772,"precio_ant":70,"cant_calificaciones":0,"promedio":0}},{"type":"Feature","geometry":{"type":"Point","coordinates":[-58.416515,-34.6189399]},"properties":{"id":165,"nombreusuario":"francrubio","precio":129,"nombre":"Sergio","fecha":"2016-02-10 15:22:19","corte":1,"descripcion":"Asado","calle":"Boedo 521, Buenos Aires, Ciudad Aut\u00f3noma de Buenos Aires","y":-34.6189399,"x":-58.416515,"precio_ant":115,"cant_calificaciones":0,"promedio":0}},{"type":"Feature","geometry":{"type":"Point","coordinates":[-65.7966549,-28.485258]},"properties":{"id":2298,"nombreusuario":"nahuel123","precio":100,"nombre":"Chazarreta","fecha":"2016-02-10 19:34:28","corte":1,"descripcion":"Asado","calle":"Villa Cubas, San Fernando del Valle de Catamarca, Catamarca","y":-28.485258,"x":-65.7966549,"precio_ant":100,"cant_calificaciones":0,"promedio":0}},{"type":"Feature","geometry":{"type":"Point","coordinates":[-65.8095864,-28.4737886]},"properties":{"id":2172,"nombreusuario":"nahuel123","precio":130,"nombre":"Mechita","fecha":"2016-02-10 19:34:54","corte":1,"descripcion":"Asado","calle":"Obispo Esqu\u00edu y Ahumada y Barros, San Fernando del Valle de Catamarca, Catamarca, Argentina","y":-28.4737886,"x":-65.8095864,"precio_ant":130,"cant_calificaciones":0,"promedio":0}},{"type":"Feature","geometry":{"type":"Point","coordinates":[-58.34566,-34.81852]},"properties":{"id":4149,"nombreusuario":"omararg","precio":75,"nombre":"La Ternera","fecha":"2016-02-10 23:31:21","corte":1,"descripcion":"Asado","calle":"R\u00edo Pilcomayo 400-598, Don Orione, Buenos Aires, Argentina","y":-34.81852,"x":-58.34566,"precio_ant":120,"cant_calificaciones":0,"promedio":0}},{"type":"Feature","geometry":{"type":"Point","coordinates":[-60.612878,-33.0213177]},"properties":{"id":890,"nombreusuario":"Touareg 2016","precio":120,"nombre":"Carniceria VGG","fecha":"2016-02-11 08:22:27","corte":1,"descripcion":"Asado","calle":"San Diego y Alvear, Villa Gdor Galvez, Santa Fe, a Fe, Argentina","y":-33.0213177,"x":-60.612878,"precio_ant":120,"cant_calificaciones":0,"promedio":0}},{"type":"Feature","geometry":{"type":"Point","coordinates":[-57.5525356,-38.016842]},"properties":{"id":2461,"nombreusuario":"An\u00f3nimo","precio":200,"nombre":"La vaca","fecha":"2016-02-06 20:28:53","corte":1,"descripcion":"Asado","calle":"Tucum\u00e1n, Mar del Plata, Buenos Aires","y":-38.016842,"x":-57.5525356,"precio_ant":200,"cant_calificaciones":0,"promedio":0}},{"type":"Feature","geometry":{"type":"Point","coordinates":[-67.4346592,-45.7888539]},"properties":{"id":2460,"nombreusuario":"Lucas","precio":110,"nombre":"Raul","fecha":"2016-02-11 13:49:34","corte":1,"descripcion":"Asado","calle":"Ing Federico Soufal 20, Comodoro Rivadavia, Chubut, Argentina","y":-45.7888539,"x":-67.4346592,"precio_ant":110,"cant_calificaciones":0,"promedio":0}},{"type":"Feature","geometry":{"type":"Point","coordinates":[-67.5388221,-45.8828274]},"properties":{"id":504,"nombreusuario":"Lucas","precio":125,"nombre":"Lurdes","fecha":"2016-02-11 13:52:59","corte":1,"descripcion":"Asado","calle":"Gabriel Barcelo 530, Comodoro Rivadavia, Chubut","y":-45.8828274,"x":-67.5388221,"precio_ant":125,"cant_calificaciones":0,"promedio":0}},{"type":"Feature","geometry":{"type":"Point","coordinates":[-58.43373,-34.59778]},"properties":{"id":1114,"nombreusuario":"Alvar","precio":120,"nombre":"Loyo y Araoz","fecha":"2016-02-11 14:10:19","corte":1,"descripcion":"Asado","calle":"Ar\u00e1oz 700, C1414DPP CABA, Argentina","y":-34.59778,"x":-58.43373,"precio_ant":80,"cant_calificaciones":4,"promedio":3}},{"type":"Feature","geometry":{"type":"Point","coordinates":[-67.4893546,-45.8712076]},"properties":{"id":1209,"nombreusuario":"zero","precio":190,"nombre":"Hermoso","fecha":"2016-02-11 15:02:27","corte":1,"descripcion":"Asado","calle":"Tiburon, Comodoro Rivadavia, Chubut, Argentina","y":-45.8712076,"x":-67.4893546,"precio_ant":5,"cant_calificaciones":0,"promedio":0}},{"type":"Feature","geometry":{"type":"Point","coordinates":[-58.4165172,-34.6543647]},"properties":{"id":476,"nombreusuario":"sandalop69","precio":55,"nombre":"BECAR","fecha":"2016-02-11 22:16:57","corte":1,"descripcion":"Asado","calle":"Av. S\u00e1enz 1185, Buenos Aires, Ciudad Aut\u00f3noma de Buenos Aires","y":-34.6543647,"x":-58.4165172,"precio_ant":49,"cant_calificaciones":0,"promedio":0}},{"type":"Feature","geometry":{"type":"Point","coordinates":[-68.8439,-32.94355]},"properties":{"id":2339,"nombreusuario":"mgaldeano","precio":105,"nombre":"Trozadero Williams","fecha":"2016-02-12 12:45:56","corte":1,"descripcion":"Asado","calle":"Remedios Escalada de San Mart\u00edn 465, Godoy Cruz, Mendoza, Argentina","y":-32.94355,"x":-68.8439,"precio_ant":60,"cant_calificaciones":0,"promedio":0}},{"type":"Feature","geometry":{"type":"Point","coordinates":[-58.5613475,-34.4688917]},"properties":{"id":1307,"nombreusuario":"Artenglobos","precio":110,"nombre":"Baidat (Precio a Minorista)","fecha":"2016-02-12 16:28:07","corte":1,"descripcion":"Asado","calle":"Uruguay 3720, B\u00e9ccar, Buenos Aires","y":-34.4688917,"x":-58.5613475,"precio_ant":45,"cant_calificaciones":0,"promedio":0}},{"type":"Feature","geometry":{"type":"Point","coordinates":[-58.5079547,-34.655883]},"properties":{"id":1118,"nombreusuario":"carloni","precio":109,"nombre":"Chalin","fecha":"2016-02-12 23:26:25","corte":1,"descripcion":"Asado","calle":"Av. Juan Bautista Alberdi 6499, Ciudad Aut\u00f3noma de Buenos Aires, Buenos Aires","y":-34.655883,"x":-58.5079547,"precio_ant":109,"cant_calificaciones":0,"promedio":0}},{"type":"Feature","geometry":{"type":"Point","coordinates":[-58.4762026,-34.6112137]},"properties":{"id":1270,"nombreusuario":"Danii","precio":99,"nombre":"Erimarc","fecha":"2016-02-13 17:25:34","corte":1,"descripcion":"Asado","calle":"Bolivia 1896, Capital Federal, Ciudad Aut\u00f3noma de Buenos Aires","y":-34.6112137,"x":-58.4762026,"precio_ant":45,"cant_calificaciones":0,"promedio":0}},{"type":"Feature","geometry":{"type":"Point","coordinates":[-57.94711,-34.8922]},"properties":{"id":33,"nombreusuario":"Miguel","precio":99,"nombre":"122 y 38","fecha":"2016-02-14 12:45:03","corte":1,"descripcion":"Asado","calle":"Av. 122 308, B1926ELT La Plata, Buenos Aires, Argentina","y":-34.8922,"x":-57.94711,"precio_ant":130,"cant_calificaciones":0,"promedio":0}},{"type":"Feature","geometry":{"type":"Point","coordinates":[-68.05172,-38.95985]},"properties":{"id":2532,"nombreusuario":"sejota","precio":110,"nombre":"CARNES ARGENTINAS","fecha":"2016-02-15 08:46:04","corte":1,"descripcion":"Asado","calle":"Perticone Eugenio 525, 8300 Neuqu\u00e9n, Neuqu\u00e9n, Argentina","y":-38.95985,"x":-68.05172,"precio_ant":90,"cant_calificaciones":0,"promedio":0}},{"type":"Feature","geometry":{"type":"Point","coordinates":[-58.41663,-34.76203]},"properties":{"id":898,"nombreusuario":"kla_12","precio":100,"nombre":"Morres","fecha":"2016-02-15 14:48:00","corte":1,"descripcion":"Asado","calle":"Fray Luis Beltr\u00e1n 281, B1832DSE Lomas de Zamora, Buenos Aires, Argentina","y":-34.76203,"x":-58.41663,"precio_ant":130,"cant_calificaciones":0,"promedio":0}},{"type":"Feature","geometry":{"type":"Point","coordinates":[-60.7014825,-31.637375]},"properties":{"id":524,"nombreusuario":"thejuampi","precio":120,"nombre":"Coto","fecha":"2016-02-15 21:22:25","corte":1,"descripcion":"Asado","calle":"Rivadavia 3390, Santa Fe","y":-31.637375,"x":-60.7014825,"precio_ant":70,"cant_calificaciones":0,"promedio":0}},{"type":"Feature","geometry":{"type":"Point","coordinates":[-57.94872,-34.94591]},"properties":{"id":32,"nombreusuario":"NachoLP","precio":122,"nombre":"\"Ver\u00f3nica\" 25 y 70","fecha":"2016-02-18 09:16:42","corte":1,"descripcion":"Asado","calle":"Calle 70 1493, B1904BHE La Plata, Buenos Aires, Argentina","y":-34.94591,"x":-57.94872,"precio_ant":125,"cant_calificaciones":0,"promedio":0}},{"type":"Feature","geometry":{"type":"Point","coordinates":[-59.13464,-37.3176]},"properties":{"id":1029,"nombreusuario":"An\u00f3nimo","precio":115,"nombre":"Monarca ","fecha":"2016-02-22 07:16:30","corte":1,"descripcion":"Asado","calle":"Av. Col\u00f3n 1171, 7000 Tandil, Buenos Aires, Argentina","y":-37.3176,"x":-59.13464,"precio_ant":109,"cant_calificaciones":1,"promedio":3}},{"type":"Feature","geometry":{"type":"Point","coordinates":[-58.1898,-34.86494]},"properties":{"id":2649,"nombreusuario":"sergiosomf","precio":57,"nombre":"Carnicerias Argentinas","fecha":"2016-02-22 18:08:55","corte":1,"descripcion":"Asado","calle":"Juan Bialet Mass\u00e9 4002-4100, B1891BKJ Ingeniero J. Allan, Buenos Aires, Argentina","y":-34.86494,"x":-58.1898,"precio_ant":65,"cant_calificaciones":1,"promedio":4}},{"type":"Feature","geometry":{"type":"Point","coordinates":[-57.98041,-34.92442]},"properties":{"id":25,"nombreusuario":"Miguel","precio":99,"nombre":"Los Hermanos","fecha":"2016-02-23 11:41:46","corte":1,"descripcion":"Asado","calle":"Calle 26 351-361, B1902DFQ La Plata, Buenos Aires, Argentina","y":-34.92442,"x":-57.98041,"precio_ant":110,"cant_calificaciones":0,"promedio":0}},{"type":"Feature","geometry":{"type":"Point","coordinates":[-58.371321,-34.6310379]},"properties":{"id":902,"nombreusuario":"An\u00f3nimo","precio":140,"nombre":"San nicolas","fecha":"2016-02-23 22:36:59","corte":1,"descripcion":"Asado","calle":"Pi y Margall 1288, Ciudad Aut\u00f3noma de Buenos Aires, Buenos Aires","y":-34.6310379,"x":-58.371321,"precio_ant":94,"cant_calificaciones":1,"promedio":3}},{"type":"Feature","geometry":{"type":"Point","coordinates":[-58.1755669,-26.1857768]},"properties":{"id":1040,"nombreusuario":"An\u00f3nimo","precio":160,"nombre":"La querencia","fecha":"2016-02-24 10:56:29","corte":1,"descripcion":"Asado","calle":"Formosa","y":-26.1857768,"x":-58.1755669,"precio_ant":100,"cant_calificaciones":0,"promedio":0}},{"type":"Feature","geometry":{"type":"Point","coordinates":[-64.22399,-31.43681]},"properties":{"id":130,"nombreusuario":"Belen Labarr","precio":130,"nombre":"El Baratillo","fecha":"2016-02-24 17:06:48","corte":1,"descripcion":"Asado","calle":"Lagunilla 2650-2698, C\u00f3rdoba, C\u00f3rdoba, Argentina","y":-31.43681,"x":-64.22399,"precio_ant":140,"cant_calificaciones":0,"promedio":0}},{"type":"Feature","geometry":{"type":"Point","coordinates":[-57.93514,-34.92042]},"properties":{"id":64,"nombreusuario":"An\u00f3nimo","precio":86,"nombre":"La nueva esperanza","fecha":"2016-02-25 12:08:52","corte":1,"descripcion":"Asado","calle":"Diagonal 73 888-900, La Plata, Buenos Aires, Argentina","y":-34.92042,"x":-57.93514,"precio_ant":110,"cant_calificaciones":0,"promedio":0}},{"type":"Feature","geometry":{"type":"Point","coordinates":[-58.6658798,-34.6591146]},"properties":{"id":421,"nombreusuario":"An\u00f3nimo","precio":76,"nombre":"La Coqueta","fecha":"2016-02-28 07:56:36","corte":1,"descripcion":"Asado","calle":"Gral. las Heras 23, Ituzaing\u00f3, Buenos Aires","y":-34.6591146,"x":-58.6658798,"precio_ant":70,"cant_calificaciones":0,"promedio":0}},{"type":"Feature","geometry":{"type":"Point","coordinates":[-58.4824396,-34.5567585]},"properties":{"id":1946,"nombreusuario":"An\u00f3nimo","precio":100,"nombre":"Majar","fecha":"2016-02-29 11:59:57","corte":1,"descripcion":"Asado","calle":"Avenida Cris\u00f3logo Larralde, Buenos Aires, Ciudad Aut\u00f3noma de Buenos Aires","y":-34.5567585,"x":-58.4824396,"precio_ant":100,"cant_calificaciones":3,"promedio":3}},{"type":"Feature","geometry":{"type":"Point","coordinates":[-58.4736767,-34.5816748]},"properties":{"id":954,"nombreusuario":"An\u00f3nimo","precio":109,"nombre":"Pampa Libre","fecha":"2016-02-29 16:05:57","corte":1,"descripcion":"Asado","calle":"Avenida Triunvirato 3677, Ciudad Aut\u00f3noma de Buenos Aires, Buenos Aires","y":-34.5816748,"x":-58.4736767,"precio_ant":105,"cant_calificaciones":1,"promedio":5}},{"type":"Feature","geometry":{"type":"Point","coordinates":[-58.64034,-34.49082]},"properties":{"id":173,"nombreusuario":"An\u00f3nimo","precio":100,"nombre":"Jorge","fecha":"2016-03-01 14:52:36","corte":1,"descripcion":"Asado","calle":"Manuel Estrada 900-998, B1611GSJ Don Torcuato, Buenos Aires, Argentina","y":-34.49082,"x":-58.64034,"precio_ant":140,"cant_calificaciones":0,"promedio":0}},{"type":"Feature","geometry":{"type":"Point","coordinates":[-58.59404,-34.60778]},"properties":{"id":1339,"nombreusuario":"An\u00f3nimo","precio":115,"nombre":"Despertar","fecha":"2016-03-03 00:17:01","corte":1,"descripcion":"Asado","calle":"Rosetti 6299-6495, B1684BZC Cdad. Jardin Lomas de Palomar, Buenos Aires, Argentina","y":-34.60778,"x":-58.59404,"precio_ant":65,"cant_calificaciones":0,"promedio":0}},{"type":"Feature","geometry":{"type":"Point","coordinates":[-58.58204,-34.58249]},"properties":{"id":934,"nombreusuario":"An\u00f3nimo","precio":90,"nombre":"Marnic","fecha":"2016-03-04 13:24:06","corte":1,"descripcion":"Asado","calle":"Blas Parera 1061, B1682BQI Villa Bosch, Buenos Aires, Argentina","y":-34.58249,"x":-58.58204,"precio_ant":75,"cant_calificaciones":0,"promedio":0}},{"type":"Feature","geometry":{"type":"Point","coordinates":[-58.4200235,-34.6071038]},"properties":{"id":1074,"nombreusuario":"An\u00f3nimo","precio":95,"nombre":"El Tucu","fecha":"2016-03-04 21:13:21","corte":1,"descripcion":"Asado","calle":"Jer\u00f3nimo Salguero 304, Ciudad Aut\u00f3noma de Buenos Aires, Buenos Aires","y":-34.6071038,"x":-58.4200235,"precio_ant":115,"cant_calificaciones":7,"promedio":4}},{"type":"Feature","geometry":{"type":"Point","coordinates":[-57.9369717,-34.9208249]},"properties":{"id":1341,"nombreusuario":"An\u00f3nimo","precio":85,"nombre":"El cruce","fecha":"2016-03-05 22:14:33","corte":1,"descripcion":"Asado","calle":"Calle 5 1451, La Plata, Buenos Aires","y":-34.9208249,"x":-57.9369717,"precio_ant":45,"cant_calificaciones":0,"promedio":0}},{"type":"Feature","geometry":{"type":"Point","coordinates":[-58.41728,-34.70222]},"properties":{"id":116,"nombreusuario":"An\u00f3nimo","precio":90,"nombre":"Frigorifico 25 de Mayo","fecha":"2016-03-08 16:22:59","corte":1,"descripcion":"Asado","calle":"Catamarca 3272-3300, Lan\u00fas Oeste, Buenos Aires, Argentina","y":-34.70222,"x":-58.41728,"precio_ant":79,"cant_calificaciones":0,"promedio":0}},{"type":"Feature","geometry":{"type":"Point","coordinates":[-59.081931,-35.183026]},"properties":{"id":2084,"nombreusuario":"An\u00f3nimo","precio":155,"nombre":"La pampita","fecha":"2016-03-09 15:05:28","corte":1,"descripcion":"Asado","calle":"Constituci\u00f3n 200-298, Lobos, Buenos Aires, Argentina","y":-35.183026,"x":-59.081931,"precio_ant":155,"cant_calificaciones":0,"promedio":0}},{"type":"Feature","geometry":{"type":"Point","coordinates":[-58.513184,-34.6230925]},"properties":{"id":2301,"nombreusuario":"Valentin","precio":96,"nombre":"Estancias Don Miguel","fecha":"2016-03-10 11:40:41","corte":1,"descripcion":"Asado","calle":"Avenida Lope de Vega 1750, Buenos Aires, Ciudad Aut\u00f3noma de Buenos Aires","y":-34.6230925,"x":-58.513184,"precio_ant":100,"cant_calificaciones":0,"promedio":0}},{"type":"Feature","geometry":{"type":"Point","coordinates":[-58.5243952,-34.6144682]},"properties":{"id":956,"nombreusuario":"Valentin","precio":95,"nombre":"El Pampa","fecha":"2016-03-10 11:41:16","corte":1,"descripcion":"Asado","calle":"Avenida Lope de Vega 3015, Buenos Aires, Ciudad Aut\u00f3noma de Buenos Aires","y":-34.6144682,"x":-58.5243952,"precio_ant":93,"cant_calificaciones":0,"promedio":0}},{"type":"Feature","geometry":{"type":"Point","coordinates":[-58.4734687,-34.620132]},"properties":{"id":163,"nombreusuario":"An\u00f3nimo","precio":110,"nombre":"Gran gaona","fecha":"2016-03-14 20:28:47","corte":1,"descripcion":"Asado","calle":"Avenida Gaona 3442, Buenos Aires, Ciudad Aut\u00f3noma de Buenos Aires","y":-34.620132,"x":-58.4734687,"precio_ant":115,"cant_calificaciones":0,"promedio":0}},{"type":"Feature","geometry":{"type":"Point","coordinates":[-64.30402,-23.97825]},"properties":{"id":656,"nombreusuario":"An\u00f3nimo","precio":79,"nombre":"MINIMERCADO PAMELITTA","fecha":"2016-03-16 16:21:19","corte":1,"descripcion":"Asado","calle":"Avenida Roberto D. Dominguez, Palma Sola, Jujuy, Argentina","y":-23.97825,"x":-64.30402,"precio_ant":75,"cant_calificaciones":0,"promedio":0}},{"type":"Feature","geometry":{"type":"Point","coordinates":[-58.372389,-34.60325]},"properties":{"id":1312,"nombreusuario":"An\u00f3nimo","precio":70,"nombre":"Carniceria  teo","fecha":"2016-03-17 17:14:10","corte":1,"descripcion":"Asado","calle":"Transradio Building, Buenos Aires, Ciudad Aut\u00f3noma de Buenos Aires","y":-34.60325,"x":-58.372389,"precio_ant":61,"cant_calificaciones":0,"promedio":0}},{"type":"Feature","geometry":{"type":"Point","coordinates":[-58.54449,-34.44928]},"properties":{"id":1105,"nombreusuario":"An\u00f3nimo","precio":100,"nombre":"Union Ganadera","fecha":"2016-03-18 12:19:55","corte":1,"descripcion":"Asado","calle":"Lanusse 1004-1098, Victoria, Buenos Aires, Argentina","y":-34.44928,"x":-58.54449,"precio_ant":115,"cant_calificaciones":1,"promedio":1}},{"type":"Feature","geometry":{"type":"Point","coordinates":[-57.98556,-34.88837]},"properties":{"id":688,"nombreusuario":"Miguel","precio":99.9,"nombre":"Oviedo","fecha":"2016-03-30 14:36:58","corte":1,"descripcion":"Asado","calle":"Av. 7 y 517 bis, Ringuelet","y":-34.88837,"x":-57.98556,"precio_ant":90,"cant_calificaciones":0,"promedio":0}},{"type":"Feature","geometry":{"type":"Point","coordinates":[-57.9155261,-34.9276855]},"properties":{"id":1908,"nombreusuario":"An\u00f3nimo","precio":350,"nombre":"Carnes  Marcelo ","fecha":"2016-03-31 16:00:46","corte":1,"descripcion":"Asado","calle":"Calle 77 231, Villa Elvira, Buenos Aires, Argentina","y":-34.9276855,"x":-57.9155261,"precio_ant":50,"cant_calificaciones":0,"promedio":0}},{"type":"Feature","geometry":{"type":"Point","coordinates":[-57.96767,-34.90312]},"properties":{"id":5759,"nombreusuario":"An\u00f3nimo","precio":110,"nombre":"J David","fecha":"2016-03-31 18:43:36","corte":1,"descripcion":"Asado","calle":"Calle 34 635, B1902BEY La Plata, Buenos Aires, Argentina","y":-34.90312,"x":-57.96767,"precio_ant":95,"cant_calificaciones":3,"promedio":4}},{"type":"Feature","geometry":{"type":"Point","coordinates":[-58.47923,-34.57753]},"properties":{"id":333,"nombreusuario":"An\u00f3nimo","precio":170,"nombre":"RES","fecha":"2016-04-11 13:03:46","corte":1,"descripcion":"Asado","calle":"Echeverr\u00eda 4901-4943, C1431CMI CABA, Argentina","y":-34.57753,"x":-58.47923,"precio_ant":170,"cant_calificaciones":1,"promedio":4}},{"type":"Feature","geometry":{"type":"Point","coordinates":[-58.757929,-34.4635863]},"properties":{"id":1651,"nombreusuario":"An\u00f3nimo","precio":120,"nombre":"Carniceria","fecha":"2016-04-14 23:45:49","corte":1,"descripcion":"Asado","calle":"Los Caldenes 1401-1435, B1664AFC Manuel Alberti, Buenos Aires, Argentina","y":-34.4635863,"x":-58.757929,"precio_ant":110,"cant_calificaciones":1,"promedio":4}},{"type":"Feature","geometry":{"type":"Point","coordinates":[-58.84374,-34.49256]},"properties":{"id":2265,"nombreusuario":"An\u00f3nimo","precio":130,"nombre":"Cotocar","fecha":"2016-04-14 23:49:51","corte":1,"descripcion":"Asado","calle":"Av. de Mayo 206-248, Pres. Derqui, Buenos Aires, Argentina","y":-34.49256,"x":-58.84374,"precio_ant":175,"cant_calificaciones":0,"promedio":0}},{"type":"Feature","geometry":{"type":"Point","coordinates":[-57.96026,-34.93261]},"properties":{"id":109,"nombreusuario":"An\u00f3nimo","precio":100,"nombre":"57 y 22","fecha":"2016-04-20 11:10:36","corte":1,"descripcion":"Asado","calle":"Calle 57 1337-1349, B1900BOA La Plata, Buenos Aires, Argentina","y":-34.93261,"x":-57.96026,"precio_ant":100,"cant_calificaciones":0,"promedio":0}},{"type":"Feature","geometry":{"type":"Point","coordinates":[-57.99035,-34.8848]},"properties":{"id":450,"nombreusuario":"An\u00f3nimo","precio":99,"nombre":"Oviedo","fecha":"2016-04-20 18:12:02","corte":1,"descripcion":"Asado","calle":"Av. 7 y 513, Ringuelet, Buenos Aires, Argentina","y":-34.8848,"x":-57.99035,"precio_ant":80,"cant_calificaciones":0,"promedio":0}},{"type":"Feature","geometry":{"type":"Point","coordinates":[-58.477971,-34.5732826]},"properties":{"id":1195,"nombreusuario":"An\u00f3nimo","precio":48,"nombre":"Mendoza 4500Avellaneda, CABA, Argentina","fecha":"2016-05-01 23:12:50","corte":1,"descripcion":"Asado","calle":"Mendoza 4520, CABA, Ciudad Aut\u00f3noma de Buenos Aires, Argentina","y":-34.5732826,"x":-58.477971,"precio_ant":45,"cant_calificaciones":0,"promedio":0}},{"type":"Feature","geometry":{"type":"Point","coordinates":[-68.8798644,-33.0391038]},"properties":{"id":1868,"nombreusuario":"An\u00f3nimo","precio":120,"nombre":"Jes\u00fas Maria","fecha":"2016-05-13 22:32:12","corte":1,"descripcion":"Asado","calle":"Perdriel, Luj\u00e1n de Cuyo, Mendoza","y":-33.0391038,"x":-68.8798644,"precio_ant":45,"cant_calificaciones":0,"promedio":0}},{"type":"Feature","geometry":{"type":"Point","coordinates":[-68.88497,-33.02657]},"properties":{"id":1020,"nombreusuario":"An\u00f3nimo","precio":132,"nombre":"Nano","fecha":"2016-05-13 22:33:12","corte":1,"descripcion":"Asado","calle":"Puerto San Juli\u00e1n 602-650, Luj\u00e1n de Cuyo, Mendoza, Argentina","y":-33.02657,"x":-68.88497,"precio_ant":132,"cant_calificaciones":0,"promedio":0}},{"type":"Feature","geometry":{"type":"Point","coordinates":[-58.4789532,-34.5700029]},"properties":{"id":6082,"nombreusuario":"DCHM77","precio":99,"nombre":"MI POLLO","fecha":"2016-05-14 11:18:15","corte":1,"descripcion":"Asado","calle":"Monroe 4390, Buenos Aires, Ciudad Aut\u00f3noma de Buenos Aires","y":-34.5700029,"x":-58.4789532,"precio_ant":99,"cant_calificaciones":0,"promedio":0}},{"type":"Feature","geometry":{"type":"Point","coordinates":[-57.95415,-34.89683]},"properties":{"id":27,"nombreusuario":"Miguel","precio":180,"nombre":"Leandro","fecha":"2016-05-19 20:19:01","corte":1,"descripcion":"Asado","calle":"Calle 37 176, B1902AVH La Plata, Buenos Aires, Argentina","y":-34.89683,"x":-57.95415,"precio_ant":180,"cant_calificaciones":0,"promedio":0}},{"type":"Feature","geometry":{"type":"Point","coordinates":[-58.4822352,-34.5794874]},"properties":{"id":644,"nombreusuario":"An\u00f3nimo","precio":95,"nombre":"Lo de ivan","fecha":"2016-05-30 15:48:43","corte":1,"descripcion":"Asado","calle":"Echeverr\u00eda 5119, Buenos Aires, Ciudad Aut\u00f3noma de Buenos Aires","y":-34.5794874,"x":-58.4822352,"precio_ant":140,"cant_calificaciones":0,"promedio":0}},{"type":"Feature","geometry":{"type":"Point","coordinates":[-58.4900198,-34.526981]},"properties":{"id":1592,"nombreusuario":"An\u00f3nimo","precio":130,"nombre":"Carniceria Alberto ","fecha":"2016-06-01 06:57:21","corte":1,"descripcion":"Asado","calle":"Liniers 1500, Florida, Buenos Aires","y":-34.526981,"x":-58.4900198,"precio_ant":130,"cant_calificaciones":0,"promedio":0}},{"type":"Feature","geometry":{"type":"Point","coordinates":[-58.410961,-34.6106089]},"properties":{"id":141,"nombreusuario":"An\u00f3nimo","precio":110,"nombre":"La lonja del rey de la carne","fecha":"2016-07-16 17:22:35","corte":1,"descripcion":"Asado","calle":"Avenida Rivadavia 3152, Buenos Aires, Ciudad Aut\u00f3noma de Buenos Aires","y":-34.6106089,"x":-58.410961,"precio_ant":99,"cant_calificaciones":0,"promedio":0}},{"type":"Feature","geometry":{"type":"Point","coordinates":[-64.2085301,-31.4200807]},"properties":{"id":2734,"nombreusuario":"An\u00f3nimo","precio":150,"nombre":"Carnicer\u00eda Cirami","fecha":"2016-07-26 15:47:13","corte":1,"descripcion":"Asado","calle":"R\u00edo Negro 870, C\u00f3rdoba","y":-31.4200807,"x":-64.2085301,"precio_ant":99,"cant_calificaciones":0,"promedio":0}},{"type":"Feature","geometry":{"type":"Point","coordinates":[-68.8479,-32.92371]},"properties":{"id":5056,"nombreusuario":"An\u00f3nimo","precio":280,"nombre":"Carrefour gc","fecha":"2016-07-27 16:23:16","corte":1,"descripcion":"Asado","calle":"Av. San Mart\u00edn 1-99, Godoy Cruz, Mendoza, Argentina","y":-32.92371,"x":-68.8479,"precio_ant":79,"cant_calificaciones":0,"promedio":0}},{"type":"Feature","geometry":{"type":"Point","coordinates":[-68.84239,-32.85872]},"properties":{"id":5988,"nombreusuario":"An\u00f3nimo","precio":114.9,"nombre":"CAMAGUI","fecha":"2016-08-08 08:01:14","corte":1,"descripcion":"Asado","calle":"San Miguel 774, 5539 Las Heras, Mendoza, Argentina","y":-32.85872,"x":-68.84239,"precio_ant":98,"cant_calificaciones":1,"promedio":5}},{"type":"Feature","geometry":{"type":"Point","coordinates":[-58.41601,-34.59281]},"properties":{"id":2246,"nombreusuario":"Mariano007","precio":110,"nombre":"Estancia Mar\u00eda Angela","fecha":"2016-08-09 12:42:53","corte":1,"descripcion":"Asado","calle":"zzzz, Cdad. Aut\u00f3noma de Buenos Aires, Argentina","y":-34.59281,"x":-58.41601,"precio_ant":114,"cant_calificaciones":0,"promedio":0}},{"type":"Feature","geometry":{"type":"Point","coordinates":[-58.5756133,-34.6721589]},"properties":{"id":582,"nombreusuario":"An\u00f3nimo","precio":90,"nombre":"Mis 2soles","fecha":"2016-08-09 12:43:26","corte":1,"descripcion":"Asado","calle":"Mariano Santamaria 1979, San Justo, Buenos Aires","y":-34.6721589,"x":-58.5756133,"precio_ant":80,"cant_calificaciones":0,"promedio":0}},{"type":"Feature","geometry":{"type":"Point","coordinates":[-58.5052324,-34.4806341]},"properties":{"id":2346,"nombreusuario":"An\u00f3nimo","precio":188.7,"nombre":"Todo Ternera - Afano","fecha":"2016-08-09 12:55:21","corte":1,"descripcion":"Asado","calle":"Albarellos 910, Acassuso, Buenos Aires","y":-34.4806341,"x":-58.5052324,"precio_ant":188.7,"cant_calificaciones":3,"promedio":4}},{"type":"Feature","geometry":{"type":"Point","coordinates":[-58.5188664,-34.6001061]},"properties":{"id":998,"nombreusuario":"An\u00f3nimo","precio":115,"nombre":"Super Servicio","fecha":"2016-08-14 00:53:55","corte":1,"descripcion":"Asado","calle":"Jos\u00e9 Cubas 4400, Ciudad Aut\u00f3noma de Buenos Aires, Buenos Aires","y":-34.6001061,"x":-58.5188664,"precio_ant":129,"cant_calificaciones":0,"promedio":0}},{"type":"Feature","geometry":{"type":"Point","coordinates":[-58.5800347,-34.4786594]},"properties":{"id":2148,"nombreusuario":"An\u00f3nimo","precio":105,"nombre":"El Cordob\u00e8s","fecha":"2016-08-22 21:56:28","corte":1,"descripcion":"Asado","calle":"Bermejo 2750, Boulogne, Buenos Aires","y":-34.4786594,"x":-58.5800347,"precio_ant":100,"cant_calificaciones":2,"promedio":5}},{"type":"Feature","geometry":{"type":"Point","coordinates":[-60.6519745,-32.9378999]},"properties":{"id":2056,"nombreusuario":"An\u00f3nimo","precio":130,"nombre":"La gallega","fecha":"2016-09-23 21:59:37","corte":1,"descripcion":"Asado","calle":"Boulevard Oro\u00f1o 300, Rosario, Santa Fe","y":-32.9378999,"x":-60.6519745,"precio_ant":131,"cant_calificaciones":0,"promedio":0}},{"type":"Feature","geometry":{"type":"Point","coordinates":[-58.4907273,-34.5831634]},"properties":{"id":1566,"nombreusuario":"An\u00f3nimo","precio":70,"nombre":"Frigor\u00edfico la rueda","fecha":"2016-09-24 11:11:58","corte":1,"descripcion":"Asado","calle":"","y":-34.5831634,"x":-58.4907273,"precio_ant":70,"cant_calificaciones":0,"promedio":0}},{"type":"Feature","geometry":{"type":"Point","coordinates":[-63.2403144,-32.4148937]},"properties":{"id":2640,"nombreusuario":"An\u00f3nimo","precio":85,"nombre":"Fiambr\u00edsima","fecha":"2016-10-05 22:14:01","corte":1,"descripcion":"Asado","calle":"San Mart\u00edn 389, Villa Mar\u00eda, C\u00f3rdoba","y":-32.4148937,"x":-63.2403144,"precio_ant":75,"cant_calificaciones":0,"promedio":0}},{"type":"Feature","geometry":{"type":"Point","coordinates":[-58.444578,-34.5585669]},"properties":{"id":2314,"nombreusuario":"An\u00f3nimo","precio":125,"nombre":"Jeny","fecha":"2016-10-07 18:51:26","corte":1,"descripcion":"Asado","calle":"Migueletes 1858, Buenos Aires, Ciudad Aut\u00f3noma de Buenos Aires","y":-34.5585669,"x":-58.444578,"precio_ant":90,"cant_calificaciones":0,"promedio":0}},{"type":"Feature","geometry":{"type":"Point","coordinates":[-58.01,-34.88188]},"properties":{"id":44,"nombreusuario":"An\u00f3nimo","precio":128,"nombre":"14 y 502","fecha":"2016-10-15 20:45:21","corte":1,"descripcion":"Asado","calle":"Calle 14 2987, Gonnet, Buenos Aires, Argentina","y":-34.88188,"x":-58.01,"precio_ant":118,"cant_calificaciones":1,"promedio":1}},{"type":"Feature","geometry":{"type":"Point","coordinates":[-58.4161524,-34.6249425]},"properties":{"id":1870,"nombreusuario":"An\u00f3nimo","precio":80,"nombre":"Boedo","fecha":"2017-03-20 19:45:45","corte":1,"descripcion":"Asado","calle":"Av. Boedo, Buenos Aires, Ciudad Aut\u00f3noma de Buenos Aires","y":-34.6249425,"x":-58.4161524,"precio_ant":80,"cant_calificaciones":0,"promedio":0}},{"type":"Feature","geometry":{"type":"Point","coordinates":[-60.71148,-32.94919]},"properties":{"id":1441,"nombreusuario":"An\u00f3nimo","precio":210,"nombre":"Felix","fecha":"2017-07-22 21:15:36","corte":1,"descripcion":"Asado","calle":"Neuqu\u00e9n 6601-6647, S2008DAA Rosario, Santa Fe, Argentina","y":-32.94919,"x":-60.71148,"precio_ant":120,"cant_calificaciones":0,"promedio":0}},{"type":"Feature","geometry":{"type":"Point","coordinates":[-60.71251,-32.93349]},"properties":{"id":1467,"nombreusuario":"An\u00f3nimo","precio":280,"nombre":"Viva ","fecha":"2017-07-22 21:16:48","corte":1,"descripcion":"Asado","calle":"Rafaela 6601-6699, Rosario, Santa Fe, Argentina","y":-32.93349,"x":-60.71251,"precio_ant":89,"cant_calificaciones":0,"promedio":0}},{"type":"Feature","geometry":{"type":"Point","coordinates":[-59.65092,-29.11858]},"properties":{"id":1508,"nombreusuario":"An\u00f3nimo","precio":135,"nombre":"Cooperativa Avellaneda","fecha":"2017-08-07 12:05:24","corte":1,"descripcion":"Asado","calle":"Calle 11 1102-1200, Avellaneda, Santa Fe, Argentina","y":-29.11858,"x":-59.65092,"precio_ant":109,"cant_calificaciones":0,"promedio":0}},{"type":"Feature","geometry":{"type":"Point","coordinates":[-58.43473,-34.77337]},"properties":{"id":1609,"nombreusuario":"juliovicens","precio":166,"nombre":"La revancha ","fecha":"2017-10-08 16:45:22","corte":1,"descripcion":"Asado","calle":"Madrid 400-498, B1832GFJ Lomas de Zamora, Buenos Aires, Argentina","y":-34.77337,"x":-58.43473,"precio_ant":117,"cant_calificaciones":0,"promedio":0}},{"type":"Feature","geometry":{"type":"Point","coordinates":[-57.9434,-34.92217]},"properties":{"id":46,"nombreusuario":"An\u00f3nimo","precio":86,"nombre":"March\u00e1n","fecha":"2017-10-10 18:57:13","corte":1,"descripcion":"Asado","calle":"Av. 60 683, La Plata, Buenos Aires, Argentina","y":-34.92217,"x":-57.9434,"precio_ant":78,"cant_calificaciones":5,"promedio":4}},{"type":"Feature","geometry":{"type":"Point","coordinates":[-58.6563875,-34.4570799]},"properties":{"id":1369,"nombreusuario":"An\u00f3nimo","precio":140,"nombre":"Lfsldfl\u00f1sdfl{s","fecha":"2017-12-17 00:03:29","corte":1,"descripcion":"Asado","calle":"Ohiggins 2499-2599, B1617DGA Gral. Pacheco, Buenos Aires, Argentina","y":-34.4570799,"x":-58.6563875,"precio_ant":40,"cant_calificaciones":1,"promedio":0}},{"type":"Feature","geometry":{"type":"Point","coordinates":[-56.6750185,-36.7232497]},"properties":{"id":728,"nombreusuario":"An\u00f3nimo","precio":145,"nombre":"Carrera","fecha":"2018-03-06 15:40:58","corte":1,"descripcion":"Asado","calle":"Mar de Aj\u00f3, Buenos Aires","y":-36.7232497,"x":-56.6750185,"precio_ant":100,"cant_calificaciones":0,"promedio":0}},{"type":"Feature","geometry":{"type":"Point","coordinates":[-64.24584,-31.40467]},"properties":{"id":2648,"nombreusuario":"An\u00f3nimo","precio":185,"nombre":"El Triunfo","fecha":"2018-05-31 11:46:18","corte":1,"descripcion":"Asado","calle":"Av. Don Bosco 4760, C\u00f3rdoba, C\u00f3rdoba, Argentina","y":-31.40467,"x":-64.24584,"precio_ant":135,"cant_calificaciones":0,"promedio":0}},{"type":"Feature","geometry":{"type":"Point","coordinates":[-58.4407537,-34.595794]},"properties":{"id":15,"nombreusuario":"An\u00f3nimo","precio":100,"nombre":"Supero Pampero","fecha":"2016-02-03 15:53:06","corte":1,"descripcion":"Asado","calle":"Vera 872, Buenos Aires, Ciudad Aut\u00f3noma de Buenos Aires","y":-34.595794,"x":-58.4407537,"precio_ant":null,"cant_calificaciones":0,"promedio":0}},{"type":"Feature","geometry":{"type":"Point","coordinates":[-58.415285,-34.6040179]},"properties":{"id":12,"nombreusuario":"An\u00f3nimo","precio":90,"nombre":"Carnipol","fecha":"2016-02-03 15:44:26","corte":1,"descripcion":"Asado","calle":"Avenida Corrientes 3578, Buenos Aires, Ciudad Aut\u00f3noma de Buenos Aires","y":-34.6040179,"x":-58.415285,"precio_ant":null,"cant_calificaciones":0,"promedio":0}},{"type":"Feature","geometry":{"type":"Point","coordinates":[-58.407304,-34.621905]},"properties":{"id":11,"nombreusuario":"An\u00f3nimo","precio":110,"nombre":"La Rioja 1000","fecha":"2016-02-03 15:43:39","corte":1,"descripcion":"Asado","calle":"La Rioja 1000, Buenos Aires, Ciudad Aut\u00f3noma de Buenos Aires","y":-34.621905,"x":-58.407304,"precio_ant":null,"cant_calificaciones":0,"promedio":0}},{"type":"Feature","geometry":{"type":"Point","coordinates":[-58.5089963,-34.62197]},"properties":{"id":16,"nombreusuario":"An\u00f3nimo","precio":90,"nombre":"Jonte 5102","fecha":"2016-02-03 15:53:57","corte":1,"descripcion":"Asado","calle":"Avenida \u00c1lvarez Jonte 5102, Buenos Aires, Ciudad Aut\u00f3noma de Buenos Aires","y":-34.62197,"x":-58.5089963,"precio_ant":null,"cant_calificaciones":0,"promedio":0}},{"type":"Feature","geometry":{"type":"Point","coordinates":[-58.826303,-27.4768589]},"properties":{"id":17,"nombreusuario":"An\u00f3nimo","precio":145,"nombre":"La Reina","fecha":"2016-02-03 18:37:32","corte":1,"descripcion":"Asado","calle":"Av. Pedro Ferr\u00e9 2002, Corrientes","y":-27.4768589,"x":-58.826303,"precio_ant":null,"cant_calificaciones":0,"promedio":0}},{"type":"Feature","geometry":{"type":"Point","coordinates":[-58.5978866,-34.4258674]},"properties":{"id":19,"nombreusuario":"An\u00f3nimo","precio":89,"nombre":"El Trebol","fecha":"2016-02-03 19:10:20","corte":1,"descripcion":"Asado","calle":"Garibaldi, Rinc\u00f3n de Milberg, Buenos Aires","y":-34.4258674,"x":-58.5978866,"precio_ant":null,"cant_calificaciones":1,"promedio":5}},{"type":"Feature","geometry":{"type":"Point","coordinates":[-57.97681,-34.91507]},"properties":{"id":23,"nombreusuario":"An\u00f3nimo","precio":110,"nombre":"19 y 36","fecha":"2016-02-03 19:30:02","corte":1,"descripcion":"Asado","calle":"Av. 19 190, B1902CYQ La Plata, Buenos Aires, Argentina","y":-34.91507,"x":-57.97681,"precio_ant":null,"cant_calificaciones":0,"promedio":0}},{"type":"Feature","geometry":{"type":"Point","coordinates":[-58.4742902,-34.581689]},"properties":{"id":22,"nombreusuario":"An\u00f3nimo","precio":135,"nombre":"Pampa Libre","fecha":"2016-02-03 19:23:54","corte":1,"descripcion":"Asado","calle":"Avenida Triunvirato 3681, Capital Federal","y":-34.581689,"x":-58.4742902,"precio_ant":null,"cant_calificaciones":0,"promedio":0}},{"type":"Feature","geometry":{"type":"Point","coordinates":[-57.96767,-34.92862]},"properties":{"id":24,"nombreusuario":"An\u00f3nimo","precio":110,"nombre":"23 y 48","fecha":"2016-02-03 19:30:42","corte":1,"descripcion":"Asado","calle":"Calle 23 770-798, La Plata, Buenos Aires, Argentina","y":-34.92862,"x":-57.96767,"precio_ant":null,"cant_calificaciones":0,"promedio":0}},{"type":"Feature","geometry":{"type":"Point","coordinates":[-57.96694,-34.92136]},"properties":{"id":26,"nombreusuario":"An\u00f3nimo","precio":100,"nombre":"19 y 44","fecha":"2016-02-03 19:32:53","corte":1,"descripcion":"Asado","calle":"Plaza Azcu\u00e9naga, La Plata, Buenos Aires, Argentina","y":-34.92136,"x":-57.96694,"precio_ant":null,"cant_calificaciones":0,"promedio":0}},{"type":"Feature","geometry":{"type":"Point","coordinates":[-57.93355,-34.92674]},"properties":{"id":28,"nombreusuario":"An\u00f3nimo","precio":110,"nombre":"7 y 67","fecha":"2016-02-03 19:34:27","corte":1,"descripcion":"Asado","calle":"Calle 67 583-599, B1904AWW La Plata, Buenos Aires, Argentina","y":-34.92674,"x":-57.93355,"precio_ant":null,"cant_calificaciones":0,"promedio":0}},{"type":"Feature","geometry":{"type":"Point","coordinates":[-57.97515,-34.8822]},"properties":{"id":29,"nombreusuario":"An\u00f3nimo","precio":80,"nombre":"Mercado Regional de La Plata","fecha":"2016-02-03 19:35:42","corte":1,"descripcion":"Asado","calle":"Av. 520 299-399, B1906BSA Ringuelet, Buenos Aires, Argentina","y":-34.8822,"x":-57.97515,"precio_ant":null,"cant_calificaciones":0,"promedio":0}},{"type":"Feature","geometry":{"type":"Point","coordinates":[-57.95355,-34.93532]},"properties":{"id":30,"nombreusuario":"An\u00f3nimo","precio":84,"nombre":"Diagonal 74 y 62","fecha":"2016-02-03 19:36:35","corte":1,"descripcion":"Asado","calle":"Diagonal 74 2502-2592, B1904BRF La Plata, Buenos Aires, Argentina","y":-34.93532,"x":-57.95355,"precio_ant":null,"cant_calificaciones":0,"promedio":0}},{"type":"Feature","geometry":{"type":"Point","coordinates":[-57.95016,-34.945]},"properties":{"id":31,"nombreusuario":"An\u00f3nimo","precio":138,"nombre":"25 e\/ 68 y 69","fecha":"2016-02-03 19:37:27","corte":1,"descripcion":"Asado","calle":"Av. 25 1768, B1904DDU La Plata, Buenos Aires, Argentina","y":-34.945,"x":-57.95016,"precio_ant":null,"cant_calificaciones":0,"promedio":0}},{"type":"Feature","geometry":{"type":"Point","coordinates":[-57.96005,-34.913]},"properties":{"id":34,"nombreusuario":"An\u00f3nimo","precio":120,"nombre":"43 e\/ 10 y 11","fecha":"2016-02-03 19:41:07","corte":1,"descripcion":"Asado","calle":"Calle 43 773, B1902AEE La Plata, Buenos Aires, Argentina","y":-34.913,"x":-57.96005,"precio_ant":null,"cant_calificaciones":0,"promedio":0}},{"type":"Feature","geometry":{"type":"Point","coordinates":[-57.92515,-34.92267]},"properties":{"id":35,"nombreusuario":"An\u00f3nimo","precio":90,"nombre":"1 y 69","fecha":"2016-02-03 19:41:52","corte":1,"descripcion":"Asado","calle":"Av. 1 1790, B1906DMU La Plata, Buenos Aires, Argentina","y":-34.92267,"x":-57.92515,"precio_ant":null,"cant_calificaciones":0,"promedio":0}},{"type":"Feature","geometry":{"type":"Point","coordinates":[-57.9682,-34.91069]},"properties":{"id":36,"nombreusuario":"An\u00f3nimo","precio":100,"nombre":"38 e\/ 12 y 13","fecha":"2016-02-03 19:44:02","corte":1,"descripcion":"Asado","calle":"Av. 38 873, La Plata, Buenos Aires, Argentina","y":-34.91069,"x":-57.9682,"precio_ant":null,"cant_calificaciones":1,"promedio":2}},{"type":"Feature","geometry":{"type":"Point","coordinates":[-56.97426,-37.25703]},"properties":{"id":38,"nombreusuario":"An\u00f3nimo","precio":125,"nombre":"La Alborada","fecha":"2016-02-03 19:49:51","corte":1,"descripcion":"Asado","calle":"Calle 107 500-598, Villa Gesell, Buenos Aires, Argentina","y":-37.25703,"x":-56.97426,"precio_ant":null,"cant_calificaciones":0,"promedio":0}},{"type":"Feature","geometry":{"type":"Point","coordinates":[-58.57314,-34.46068]},"properties":{"id":39,"nombreusuario":"An\u00f3nimo","precio":108,"nombre":"Av Avellaneda y Acceso Norte","fecha":"2016-02-03 19:58:56","corte":1,"descripcion":"Asado","calle":"Av. Nicol\u00e1s Avellaneda 3699-3753, B1645CQC Virreyes, Buenos Aires, Argentina","y":-34.46068,"x":-58.57314,"precio_ant":null,"cant_calificaciones":0,"promedio":0}},{"type":"Feature","geometry":{"type":"Point","coordinates":[-58.07345,-34.85213]},"properties":{"id":40,"nombreusuario":"An\u00f3nimo","precio":130,"nombre":"3 y 422","fecha":"2016-02-03 20:01:56","corte":1,"descripcion":"Asado","calle":"Diagonal 426 400-448, Villa Elisa, Buenos Aires, Argentina","y":-34.85213,"x":-58.07345,"precio_ant":null,"cant_calificaciones":0,"promedio":0}},{"type":"Feature","geometry":{"type":"Point","coordinates":[-58.43027,-34.59984]},"properties":{"id":41,"nombreusuario":"An\u00f3nimo","precio":105,"nombre":"Estado de Israel y Guardia Vieja","fecha":"2016-02-03 20:08:34","corte":1,"descripcion":"Asado","calle":"Castillo 2-50, Cdad. Aut\u00f3noma de Buenos Aires, Argentina","y":-34.59984,"x":-58.43027,"precio_ant":null,"cant_calificaciones":0,"promedio":0}},{"type":"Feature","geometry":{"type":"Point","coordinates":[-57.95337,-34.93182]},"properties":{"id":42,"nombreusuario":"An\u00f3nimo","precio":87,"nombre":"19 y 60","fecha":"2016-02-03 20:09:38","corte":1,"descripcion":"Asado","calle":"Plaza Hip\u00f3lito Yrigoyen 179, La Plata, Buenos Aires, Argentina","y":-34.93182,"x":-57.95337,"precio_ant":null,"cant_calificaciones":0,"promedio":0}},{"type":"Feature","geometry":{"type":"Point","coordinates":[-57.98097,-34.9152]},"properties":{"id":43,"nombreusuario":"An\u00f3nimo","precio":88,"nombre":"21 y 34","fecha":"2016-02-03 20:10:14","corte":1,"descripcion":"Asado","calle":"Calle 34 1293, B1902BFW La Plata, Buenos Aires, Argentina","y":-34.9152,"x":-57.98097,"precio_ant":null,"cant_calificaciones":0,"promedio":0}},{"type":"Feature","geometry":{"type":"Point","coordinates":[-58.00569,-34.93422]},"properties":{"id":45,"nombreusuario":"An\u00f3nimo","precio":115,"nombre":"$uper los Amigos","fecha":"2016-02-03 20:12:46","corte":1,"descripcion":"Asado","calle":"Calle 142 Bis 2-22, San Carlos, Buenos Aires, Argentina","y":-34.93422,"x":-58.00569,"precio_ant":null,"cant_calificaciones":0,"promedio":0}},{"type":"Feature","geometry":{"type":"Point","coordinates":[-57.94406,-34.93423]},"properties":{"id":47,"nombreusuario":"An\u00f3nimo","precio":89,"nombre":"16 y 66","fecha":"2016-02-03 20:14:21","corte":1,"descripcion":"Asado","calle":"Av. 66 1045, La Plata, Buenos Aires, Argentina","y":-34.93423,"x":-57.94406,"precio_ant":null,"cant_calificaciones":0,"promedio":0}},{"type":"Feature","geometry":{"type":"Point","coordinates":[-58.01004,-34.87954]},"properties":{"id":48,"nombreusuario":"An\u00f3nimo","precio":128,"nombre":" 13 entre 500 y 501","fecha":"2016-02-03 20:15:37","corte":1,"descripcion":"Asado","calle":"Calle 13 3459, B1897ASW Gonnet, Buenos Aires, Argentina","y":-34.87954,"x":-58.01004,"precio_ant":null,"cant_calificaciones":0,"promedio":0}},{"type":"Feature","geometry":{"type":"Point","coordinates":[-58.05155,-34.882]},"properties":{"id":49,"nombreusuario":"An\u00f3nimo","precio":120,"nombre":"Camino Belgrano y 474","fecha":"2016-02-03 20:21:19","corte":1,"descripcion":"Asado","calle":"Camino Gral. Belgrano 101-199, B1894EQC City Bell, Buenos Aires, Argentina","y":-34.882,"x":-58.05155,"precio_ant":null,"cant_calificaciones":0,"promedio":0}},{"type":"Feature","geometry":{"type":"Point","coordinates":[-57.96421,-34.92542]},"properties":{"id":50,"nombreusuario":"An\u00f3nimo","precio":120,"nombre":"48 e\/ 19 y 20","fecha":"2016-02-03 20:22:09","corte":1,"descripcion":"Asado","calle":"Calle 48 1225, B1900ANY La Plata, Buenos Aires, Argentina","y":-34.92542,"x":-57.96421,"precio_ant":null,"cant_calificaciones":0,"promedio":0}},{"type":"Feature","geometry":{"type":"Point","coordinates":[-57.94986,-34.89762]},"properties":{"id":51,"nombreusuario":"An\u00f3nimo","precio":168,"nombre":"118 y Diagonal 80","fecha":"2016-02-03 20:22:50","corte":1,"descripcion":"Asado","calle":"Calle 118 382, B1902CCP La Plata, Buenos Aires, Argentina","y":-34.89762,"x":-57.94986,"precio_ant":null,"cant_calificaciones":0,"promedio":0}},{"type":"Feature","geometry":{"type":"Point","coordinates":[-57.94951,-34.90205]},"properties":{"id":52,"nombreusuario":"An\u00f3nimo","precio":85,"nombre":"42 y Diagonal 80","fecha":"2016-02-03 20:23:56","corte":1,"descripcion":"Asado","calle":"Diagonal 80 423, La Plata, Buenos Aires, Argentina","y":-34.90205,"x":-57.94951,"precio_ant":null,"cant_calificaciones":0,"promedio":0}},{"type":"Feature","geometry":{"type":"Point","coordinates":[-57.93084,-34.91849]},"properties":{"id":53,"nombreusuario":"An\u00f3nimo","precio":130,"nombre":"1 y 64","fecha":"2016-02-03 20:24:38","corte":1,"descripcion":"Asado","calle":"Av. 1 1546, B1906DMS La Plata, Buenos Aires, Argentina","y":-34.91849,"x":-57.93084,"precio_ant":null,"cant_calificaciones":2,"promedio":3}},{"type":"Feature","geometry":{"type":"Point","coordinates":[-57.9491,-34.90965]},"properties":{"id":55,"nombreusuario":"An\u00f3nimo","precio":100,"nombre":"Supero Pampero","fecha":"2016-02-03 20:27:01","corte":1,"descripcion":"Asado","calle":"Vera 872","y":-34.90965,"x":-57.9491,"precio_ant":null,"cant_calificaciones":1,"promedio":0}},{"type":"Feature","geometry":{"type":"Point","coordinates":[-58.40916,-34.58242]},"properties":{"id":56,"nombreusuario":"An\u00f3nimo","precio":120,"nombre":"Las Heras y Paunero","fecha":"2016-02-03 20:29:26","corte":1,"descripcion":"Asado","calle":"Paunero 2736, C1425DIB CABA, Argentina","y":-34.58242,"x":-58.40916,"precio_ant":null,"cant_calificaciones":0,"promedio":0}},{"type":"Feature","geometry":{"type":"Point","coordinates":[-68.80265,-32.88864]},"properties":{"id":57,"nombreusuario":"An\u00f3nimo","precio":80,"nombre":"Mi campo","fecha":"2016-02-03 20:44:15","corte":1,"descripcion":"Asado","calle":"Gutemberg 2301-2399, M5521END, Mendoza, Argentina","y":-32.88864,"x":-68.80265,"precio_ant":null,"cant_calificaciones":0,"promedio":0}},{"type":"Feature","geometry":{"type":"Point","coordinates":[-57.97985,-34.88767]},"properties":{"id":58,"nombreusuario":"An\u00f3nimo","precio":95,"nombre":"4 y 520","fecha":"2016-02-03 20:45:30","corte":1,"descripcion":"Asado","calle":"Av. 520 925, B1906BSG Ringuelet, Buenos Aires, Argentina","y":-34.88767,"x":-57.97985,"precio_ant":null,"cant_calificaciones":0,"promedio":0}},{"type":"Feature","geometry":{"type":"Point","coordinates":[-57.98409,-34.88697]},"properties":{"id":60,"nombreusuario":"An\u00f3nimo","precio":95,"nombre":"5 esq. 517 bis - Ringuelet","fecha":"2016-02-03 20:47:44","corte":1,"descripcion":"Asado","calle":"Calle 5 Bis 1480, B1906GMF Ringuelet, Buenos Aires, Argentina","y":-34.88697,"x":-57.98409,"precio_ant":null,"cant_calificaciones":0,"promedio":0}},{"type":"Feature","geometry":{"type":"Point","coordinates":[-60.91071,-32.89695]},"properties":{"id":61,"nombreusuario":"An\u00f3nimo","precio":110,"nombre":"Don Goyo","fecha":"2016-02-03 20:59:09","corte":1,"descripcion":"Asado","calle":"Bv. Estanislao L\u00f3pez 952-1000, Rold\u00e1n, Santa Fe, Argentina","y":-32.89695,"x":-60.91071,"precio_ant":null,"cant_calificaciones":0,"promedio":0}},{"type":"Feature","geometry":{"type":"Point","coordinates":[-57.93921,-34.94638]},"properties":{"id":63,"nombreusuario":"An\u00f3nimo","precio":100,"nombre":" 75 y 21","fecha":"2016-02-03 21:01:04","corte":1,"descripcion":"Asado","calle":"Calle 21 2078-2100, B1912AXD Altos de San Lorenzo, Buenos Aires, Argentina","y":-34.94638,"x":-57.93921,"precio_ant":null,"cant_calificaciones":0,"promedio":0}},{"type":"Feature","geometry":{"type":"Point","coordinates":[-58.61171,-34.49423]},"properties":{"id":65,"nombreusuario":"An\u00f3nimo","precio":95,"nombre":"El Rinc\u00f3n","fecha":"2016-02-03 21:04:56","corte":1,"descripcion":"Asado","calle":"Ant\u00e1rtida Argentina 3110, Don Torcuato, Buenos Aires, Argentina","y":-34.49423,"x":-58.61171,"precio_ant":null,"cant_calificaciones":0,"promedio":0}},{"type":"Feature","geometry":{"type":"Point","coordinates":[-57.9478399,-34.8874603]},"properties":{"id":66,"nombreusuario":"An\u00f3nimo","precio":99,"nombre":"Los pampeanos ","fecha":"2016-02-03 21:06:23","corte":1,"descripcion":"Asado","calle":"122 entre 32 y 34","y":-34.8874603,"x":-57.9478399,"precio_ant":null,"cant_calificaciones":0,"promedio":0}},{"type":"Feature","geometry":{"type":"Point","coordinates":[-57.93417,-34.91592]},"properties":{"id":67,"nombreusuario":"An\u00f3nimo","precio":95,"nombre":" La Nueva Esperanza","fecha":"2016-02-03 21:15:19","corte":1,"descripcion":"Asado","calle":"Calle 61 281-299, B1904ADK La Plata, Buenos Aires, Argentina","y":-34.91592,"x":-57.93417,"precio_ant":null,"cant_calificaciones":0,"promedio":0}},{"type":"Feature","geometry":{"type":"Point","coordinates":[-58.48395,-34.63182]},"properties":{"id":68,"nombreusuario":"An\u00f3nimo","precio":129,"nombre":"Bacacay y Mercedes","fecha":"2016-02-03 21:18:39","corte":1,"descripcion":"Asado","calle":"Mercedes 202-208, C1407AHD CABA, Argentina","y":-34.63182,"x":-58.48395,"precio_ant":null,"cant_calificaciones":0,"promedio":0}},{"type":"Feature","geometry":{"type":"Point","coordinates":[-58.56967,-34.58941]},"properties":{"id":69,"nombreusuario":"An\u00f3nimo","precio":109,"nombre":"El Entrerriano","fecha":"2016-02-03 21:20:57","corte":1,"descripcion":"Asado","calle":"El Payador 5265, B1682AHG Villa Bosch, Buenos Aires, Argentina","y":-34.58941,"x":-58.56967,"precio_ant":null,"cant_calificaciones":0,"promedio":0}},{"type":"Feature","geometry":{"type":"Point","coordinates":[-67.08527,-39.1036]},"properties":{"id":71,"nombreusuario":"An\u00f3nimo","precio":145,"nombre":"La boutique de la carne","fecha":"2016-02-03 21:25:41","corte":1,"descripcion":"Asado","calle":"L. Beltr\u00e1n, R\u00edo Negro, Argentina","y":-39.1036,"x":-67.08527,"precio_ant":null,"cant_calificaciones":0,"promedio":0}},{"type":"Feature","geometry":{"type":"Point","coordinates":[-58.87741,-32.37338]},"properties":{"id":73,"nombreusuario":"An\u00f3nimo","precio":103,"nombre":" Neyra 101","fecha":"2016-02-03 21:29:51","corte":1,"descripcion":"Asado","calle":"-32.36608, -58.8661","y":-32.37338,"x":-58.87741,"precio_ant":null,"cant_calificaciones":0,"promedio":0}},{"type":"Feature","geometry":{"type":"Point","coordinates":[-58.86575,-32.36438]},"properties":{"id":74,"nombreusuario":"An\u00f3nimo","precio":103,"nombre":"Neyra 101","fecha":"2016-02-03 21:30:45","corte":1,"descripcion":"Asado","calle":"Av. Alem, Entre R\u00edos, Argentina","y":-32.36438,"x":-58.86575,"precio_ant":null,"cant_calificaciones":0,"promedio":0}},{"type":"Feature","geometry":{"type":"Point","coordinates":[-65.1053,-24.65928]},"properties":{"id":75,"nombreusuario":"An\u00f3nimo","precio":90,"nombre":"Belgrano y Moreno","fecha":"2016-02-03 21:36:05","corte":1,"descripcion":"Asado","calle":"RP12, Salta, Argentina","y":-24.65928,"x":-65.1053,"precio_ant":null,"cant_calificaciones":0,"promedio":0}},{"type":"Feature","geometry":{"type":"Point","coordinates":[-58.01389,-34.91873]},"properties":{"id":76,"nombreusuario":"An\u00f3nimo","precio":100,"nombre":"Tu Estilo Carnes","fecha":"2016-02-03 21:44:33","corte":1,"descripcion":"Asado","calle":"Av. 520 4167-4199, B1908GYB San Carlos, Buenos Aires, Argentina","y":-34.91873,"x":-58.01389,"precio_ant":null,"cant_calificaciones":0,"promedio":0}},{"type":"Feature","geometry":{"type":"Point","coordinates":[-58.31259,-34.77284]},"properties":{"id":77,"nombreusuario":"An\u00f3nimo","precio":98,"nombre":" Abraham Mendelevich y Hudson","fecha":"2016-02-03 21:47:38","corte":1,"descripcion":"Asado","calle":"Abraham Mendelevich 2175-2199, San Francisco Solano, Buenos Aires, Argentina","y":-34.77284,"x":-58.31259,"precio_ant":null,"cant_calificaciones":0,"promedio":0}},{"type":"Feature","geometry":{"type":"Point","coordinates":[-58.46044,-34.80587]},"properties":{"id":78,"nombreusuario":"An\u00f3nimo","precio":110,"nombre":"Carniceria M & H","fecha":"2016-02-03 21:55:06","corte":1,"descripcion":"Asado","calle":"San Mart\u00edn 900-998, B1842DOT Monte Grande, Buenos Aires, Argentina","y":-34.80587,"x":-58.46044,"precio_ant":null,"cant_calificaciones":0,"promedio":0}},{"type":"Feature","geometry":{"type":"Point","coordinates":[-71.35652,-40.15711]},"properties":{"id":79,"nombreusuario":"An\u00f3nimo","precio":183,"nombre":"Super La An\u00f3nimaSuper La An\u00f3nima","fecha":"2016-02-03 21:57:50","corte":1,"descripcion":"Asado","calle":"Cnel. Rhode 630-700, San Martin de los Andes, Neuqu\u00e9n, Argentina","y":-40.15711,"x":-71.35652,"precio_ant":null,"cant_calificaciones":0,"promedio":0}},{"type":"Feature","geometry":{"type":"Point","coordinates":[-71.34216,-40.15455]},"properties":{"id":80,"nombreusuario":"An\u00f3nimo","precio":149,"nombre":"Supermercado Todo","fecha":"2016-02-03 21:58:51","corte":1,"descripcion":"Asado","calle":"Av. Koessler 1542, San Martin de los Andes, Neuqu\u00e9n, Argentina","y":-40.15455,"x":-71.34216,"precio_ant":null,"cant_calificaciones":0,"promedio":0}},{"type":"Feature","geometry":{"type":"Point","coordinates":[-69.22912,-38.93242]},"properties":{"id":81,"nombreusuario":"An\u00f3nimo","precio":160,"nombre":"Carnicer\u00eda Ram\u00f3n","fecha":"2016-02-03 22:00:39","corte":1,"descripcion":"Asado","calle":"San Mart\u00edn 1-98, Cutral Co, Neuqu\u00e9n, Argentina","y":-38.93242,"x":-69.22912,"precio_ant":null,"cant_calificaciones":0,"promedio":0}},{"type":"Feature","geometry":{"type":"Point","coordinates":[-58.57687,-34.53464]},"properties":{"id":82,"nombreusuario":"An\u00f3nimo","precio":90,"nombre":"Diagonal","fecha":"2016-02-03 22:06:09","corte":1,"descripcion":"Asado","calle":"Jos\u00e9 Le\u00f3n Su\u00e1rez 7000, Jos\u00e9 Le\u00f3n Su\u00e1rez, Buenos Aires, Argentina","y":-34.53464,"x":-58.57687,"precio_ant":null,"cant_calificaciones":0,"promedio":0}},{"type":"Feature","geometry":{"type":"Point","coordinates":[-58.65549,-34.85005]},"properties":{"id":5903,"nombreusuario":"An\u00f3nimo","precio":126,"nombre":"Los amigos","fecha":"2016-03-09 11:12:23","corte":1,"descripcion":"Asado","calle":"Brig. Gral. Juan Manuel de Rosas 23607-23617, Virrey del Pino, Buenos Aires, Argentina","y":-34.85005,"x":-58.65549,"precio_ant":null,"cant_calificaciones":0,"promedio":0}},{"type":"Feature","geometry":{"type":"Point","coordinates":[-58.42984,-34.62756]},"properties":{"id":86,"nombreusuario":"An\u00f3nimo","precio":120,"nombre":"No recuerdo, es buena, pero un poco cara","fecha":"2016-02-03 23:32:00","corte":1,"descripcion":"Asado","calle":"Av. Directorio 208, C1424CIP CABA, Argentina","y":-34.62756,"x":-58.42984,"precio_ant":null,"cant_calificaciones":0,"promedio":0}},{"type":"Feature","geometry":{"type":"Point","coordinates":[-58.44124,-34.62107]},"properties":{"id":87,"nombreusuario":"An\u00f3nimo","precio":115,"nombre":"Mercado del progreso","fecha":"2016-02-03 23:35:23","corte":1,"descripcion":"Asado","calle":"Av. del Barco Centenera 117, Cdad. Aut\u00f3noma de Buenos Aires, Argentina","y":-34.62107,"x":-58.44124,"precio_ant":null,"cant_calificaciones":1,"promedio":4}},{"type":"Feature","geometry":{"type":"Point","coordinates":[-58.42717,-34.62549]},"properties":{"id":88,"nombreusuario":"An\u00f3nimo","precio":92,"nombre":"Nose","fecha":"2016-02-03 23:55:32","corte":1,"descripcion":"Asado","calle":"Av. la Plata 823, Cdad. Aut\u00f3noma de Buenos Aires, Argentina","y":-34.62549,"x":-58.42717,"precio_ant":null,"cant_calificaciones":0,"promedio":0}},{"type":"Feature","geometry":{"type":"Point","coordinates":[-62.7601738,-37.1795093]},"properties":{"id":89,"nombreusuario":"An\u00f3nimo","precio":85,"nombre":"La carhuense","fecha":"2016-02-03 23:56:09","corte":1,"descripcion":"Asado","calle":"Carhu\u00e9, Buenos Aires","y":-37.1795093,"x":-62.7601738,"precio_ant":null,"cant_calificaciones":1,"promedio":5}},{"type":"Feature","geometry":{"type":"Point","coordinates":[-58.38751,-34.73683]},"properties":{"id":90,"nombreusuario":"An\u00f3nimo","precio":130,"nombre":"Nose","fecha":"2016-02-03 23:57:25","corte":1,"descripcion":"Asado","calle":"Presbitero Jos\u00e9 Malabia 502-600, Remedios de Escalada, Buenos Aires, Argentina","y":-34.73683,"x":-58.38751,"precio_ant":null,"cant_calificaciones":0,"promedio":0}},{"type":"Feature","geometry":{"type":"Point","coordinates":[-67.5843301,-39.0117562]},"properties":{"id":91,"nombreusuario":"An\u00f3nimo","precio":135,"nombre":"San juan","fecha":"2016-02-03 23:57:28","corte":1,"descripcion":"Asado","calle":"Avenida San Juan 2725, General Roca, R\u00edo Negro","y":-39.0117562,"x":-67.5843301,"precio_ant":null,"cant_calificaciones":0,"promedio":0}},{"type":"Feature","geometry":{"type":"Point","coordinates":[-58.38608,-34.73692]},"properties":{"id":92,"nombreusuario":"An\u00f3nimo","precio":120,"nombre":"-","fecha":"2016-02-03 23:59:35","corte":1,"descripcion":"Asado","calle":"Heroes de Malvinas 3902-4000, Remedios de Escalada, Buenos Aires, Argentina","y":-34.73692,"x":-58.38608,"precio_ant":null,"cant_calificaciones":0,"promedio":0}},{"type":"Feature","geometry":{"type":"Point","coordinates":[-58.3825929,-34.7778071]},"properties":{"id":93,"nombreusuario":"An\u00f3nimo","precio":98,"nombre":"Morrone","fecha":"2016-02-03 23:59:40","corte":1,"descripcion":"Asado","calle":"Achupallas 1802-1900, Temperley, Buenos Aires, Argentina","y":-34.7778071,"x":-58.3825929,"precio_ant":null,"cant_calificaciones":0,"promedio":0}},{"type":"Feature","geometry":{"type":"Point","coordinates":[-58.4342978,-34.6280843]},"properties":{"id":94,"nombreusuario":"An\u00f3nimo","precio":96,"nombre":"Carrnicer\u00cdas MB","fecha":"2016-02-03 23:59:53","corte":1,"descripcion":"Asado","calle":"Jos\u00e9 Mar\u00eda Moreno 1801, Ciudad Aut\u00f3noma de Buenos Aires","y":-34.6280843,"x":-58.4342978,"precio_ant":null,"cant_calificaciones":0,"promedio":0}},{"type":"Feature","geometry":{"type":"Point","coordinates":[-57.6052193,-37.9401486]},"properties":{"id":95,"nombreusuario":"An\u00f3nimo","precio":89,"nombre":"Los reseros","fecha":"2016-02-04 00:00:18","corte":1,"descripcion":"Asado","calle":"Avenida Constituci\u00f3n 5400, Mar del Plata, Buenos Aires","y":-37.9401486,"x":-57.6052193,"precio_ant":null,"cant_calificaciones":0,"promedio":0}},{"type":"Feature","geometry":{"type":"Point","coordinates":[-58.39406,-34.74323]},"properties":{"id":96,"nombreusuario":"An\u00f3nimo","precio":120,"nombre":"De la estacion","fecha":"2016-02-04 00:00:34","corte":1,"descripcion":"Asado","calle":"Maip\u00fa 139, B1828IJC Banfield, Buenos Aires, Argentina","y":-34.74323,"x":-58.39406,"precio_ant":null,"cant_calificaciones":0,"promedio":0}},{"type":"Feature","geometry":{"type":"Point","coordinates":[-67.5878508,-39.0278708]},"properties":{"id":99,"nombreusuario":"An\u00f3nimo","precio":165,"nombre":"La an\u00f3nima","fecha":"2016-02-04 00:02:31","corte":1,"descripcion":"Asado","calle":"Avenida San Juan 1455, General Roca, R\u00edo Negro","y":-39.0278708,"x":-67.5878508,"precio_ant":null,"cant_calificaciones":0,"promedio":0}},{"type":"Feature","geometry":{"type":"Point","coordinates":[-58.42859,-34.61836]},"properties":{"id":100,"nombreusuario":"An\u00f3nimo","precio":135,"nombre":"-","fecha":"2016-02-04 00:03:04","corte":1,"descripcion":"Asado","calle":"Rosario 4, C1424CCB CABA, Argentina","y":-34.61836,"x":-58.42859,"precio_ant":null,"cant_calificaciones":0,"promedio":0}},{"type":"Feature","geometry":{"type":"Point","coordinates":[-59.1148041,-25.7361127]},"properties":{"id":4059,"nombreusuario":"An\u00f3nimo","precio":55,"nombre":"Romela","fecha":"2016-02-09 20:07:21","corte":1,"descripcion":"Asado","calle":"Malvinas y Bs. Aires","y":-25.7361127,"x":-59.1148041,"precio_ant":null,"cant_calificaciones":0,"promedio":0}},{"type":"Feature","geometry":{"type":"Point","coordinates":[-59.0068998,-27.4344598]},"properties":{"id":103,"nombreusuario":"An\u00f3nimo","precio":95,"nombre":"Don Juancho","fecha":"2016-02-04 00:07:13","corte":1,"descripcion":"Asado","calle":"Avenida 25 de Mayo 4200, Fontana, Chaco","y":-27.4344598,"x":-59.0068998,"precio_ant":null,"cant_calificaciones":0,"promedio":0}},{"type":"Feature","geometry":{"type":"Point","coordinates":[-64.3410143,-31.356057]},"properties":{"id":104,"nombreusuario":"An\u00f3nimo","precio":100,"nombre":"La celeste","fecha":"2016-02-04 00:08:04","corte":1,"descripcion":"Asado","calle":"Calle Cbo 1 Brizuela y sucre, la calera C\u00f3rdoba","y":-31.356057,"x":-64.3410143,"precio_ant":null,"cant_calificaciones":0,"promedio":0}},{"type":"Feature","geometry":{"type":"Point","coordinates":[-59.0277984,-27.4145266]},"properties":{"id":105,"nombreusuario":"An\u00f3nimo","precio":95,"nombre":"Don Juancho","fecha":"2016-02-04 00:12:00","corte":1,"descripcion":"Asado","calle":"Avenida 25 de Mayo 5200, Fontana, Chaco","y":-27.4145266,"x":-59.0277984,"precio_ant":null,"cant_calificaciones":0,"promedio":0}},{"type":"Feature","geometry":{"type":"Point","coordinates":[-58.42803,-34.6216]},"properties":{"id":106,"nombreusuario":"An\u00f3nimo","precio":115,"nombre":"-","fecha":"2016-02-04 01:18:40","corte":1,"descripcion":"Asado","calle":"Av. la Plata 567, C1235ABC CABA, Argentina","y":-34.6216,"x":-58.42803,"precio_ant":null,"cant_calificaciones":1,"promedio":1}},{"type":"Feature","geometry":{"type":"Point","coordinates":[-60.209392,-33.3470311]},"properties":{"id":107,"nombreusuario":"An\u00f3nimo","precio":99,"nombre":"El Loko","fecha":"2016-02-04 08:16:56","corte":1,"descripcion":"Asado","calle":"Ben\u00edtez 600, San Nicol\u00e1s de Los Arroyos, Buenos Aires","y":-33.3470311,"x":-60.209392,"precio_ant":null,"cant_calificaciones":0,"promedio":0}},{"type":"Feature","geometry":{"type":"Point","coordinates":[-60.21032,-33.34811]},"properties":{"id":108,"nombreusuario":"An\u00f3nimo","precio":99,"nombre":"El Loko","fecha":"2016-02-04 08:19:30","corte":1,"descripcion":"Asado","calle":"Alvear 599-627, San Nicol\u00e1s de Los Arroyos, Buenos Aires, Argentina","y":-33.34811,"x":-60.21032,"precio_ant":null,"cant_calificaciones":0,"promedio":0}},{"type":"Feature","geometry":{"type":"Point","coordinates":[-65.3015755,-43.2694693]},"properties":{"id":110,"nombreusuario":"An\u00f3nimo","precio":139,"nombre":"Anto","fecha":"2016-02-04 10:06:18","corte":1,"descripcion":"Asado","calle":"Yaganes 1700, Trelew, Chubut","y":-43.2694693,"x":-65.3015755,"precio_ant":null,"cant_calificaciones":0,"promedio":0}},{"type":"Feature","geometry":{"type":"Point","coordinates":[-58.78196,-34.43863]},"properties":{"id":112,"nombreusuario":"An\u00f3nimo","precio":72,"nombre":"Chinchulandia x mayor","fecha":"2016-02-04 11:37:59","corte":1,"descripcion":"Asado","calle":"Av. Constituci\u00f3n 1199-1299, B1664MBM Manuel Alberti, Buenos Aires, Argentina","y":-34.43863,"x":-58.78196,"precio_ant":null,"cant_calificaciones":0,"promedio":0}},{"type":"Feature","geometry":{"type":"Point","coordinates":[-58.4149152,-34.602894]},"properties":{"id":113,"nombreusuario":"An\u00f3nimo","precio":80,"nombre":"Asado","fecha":"2016-02-04 12:00:42","corte":1,"descripcion":"Asado","calle":"Humahuaca 3570, C1191ABF CABA, Argentina","y":-34.602894,"x":-58.4149152,"precio_ant":null,"cant_calificaciones":0,"promedio":0}},{"type":"Feature","geometry":{"type":"Point","coordinates":[-62.7325973,-35.9732789]},"properties":{"id":317,"nombreusuario":"An\u00f3nimo","precio":69,"nombre":"La an\u00f3nima trenque lauquen","fecha":"2016-02-04 13:43:18","corte":1,"descripcion":"Asado","calle":"Trenque Lauquen, Buenos Aires, Argentina","y":-35.9732789,"x":-62.7325973,"precio_ant":null,"cant_calificaciones":0,"promedio":0}},{"type":"Feature","geometry":{"type":"Point","coordinates":[-65.04776,-42.76888]},"properties":{"id":115,"nombreusuario":"An\u00f3nimo","precio":160,"nombre":"La Tranquera","fecha":"2016-02-04 12:09:42","corte":1,"descripcion":"Asado","calle":"Luis Mar\u00eda Campos 300-350, Puerto Madryn, Chubut, Argentina","y":-42.76888,"x":-65.04776,"precio_ant":null,"cant_calificaciones":0,"promedio":0}},{"type":"Feature","geometry":{"type":"Point","coordinates":[-58.39558,-34.7758]},"properties":{"id":120,"nombreusuario":"An\u00f3nimo","precio":70,"nombre":"El tio","fecha":"2016-02-04 12:17:33","corte":1,"descripcion":"Asado","calle":"Sta Mar\u00eda de Oro 600-654, Temperley, Buenos Aires, Argentina","y":-34.7758,"x":-58.39558,"precio_ant":null,"cant_calificaciones":0,"promedio":0}},{"type":"Feature","geometry":{"type":"Point","coordinates":[-58.36795,-34.68975]},"properties":{"id":118,"nombreusuario":"An\u00f3nimo","precio":98,"nombre":"ANTONIO","fecha":"2016-02-04 12:13:52","corte":1,"descripcion":"Asado","calle":"Pres. Domingo Faustino Sarmiento 1736, B1869CZN Gerli, Buenos Aires, Argentina","y":-34.68975,"x":-58.36795,"precio_ant":null,"cant_calificaciones":0,"promedio":0}},{"type":"Feature","geometry":{"type":"Point","coordinates":[-58.3857,-34.58182]},"properties":{"id":119,"nombreusuario":"An\u00f3nimo","precio":110,"nombre":"SAIRA","fecha":"2016-02-04 12:15:29","corte":1,"descripcion":"Asado","calle":"Pres. Arturo Illia 11, Cdad. Aut\u00f3noma de Buenos Aires, Argentina","y":-34.58182,"x":-58.3857,"precio_ant":null,"cant_calificaciones":0,"promedio":0}},{"type":"Feature","geometry":{"type":"Point","coordinates":[-58.58009,-34.66384]},"properties":{"id":121,"nombreusuario":"An\u00f3nimo","precio":120,"nombre":"Ignacio","fecha":"2016-02-04 12:17:46","corte":1,"descripcion":"Asado","calle":"Av. Dr. Ignacio Arieta 1100-1198, B1753AOX Villa Luzuriaga, Buenos Aires, Argentina","y":-34.66384,"x":-58.58009,"precio_ant":null,"cant_calificaciones":0,"promedio":0}},{"type":"Feature","geometry":{"type":"Point","coordinates":[-58.420461,-34.5997104]},"properties":{"id":123,"nombreusuario":"An\u00f3nimo","precio":145,"nombre":"Hno Joel","fecha":"2016-02-04 12:23:25","corte":1,"descripcion":"Asado","calle":"Av. Medrano 881, Buenos Aires, Ciudad Aut\u00f3noma de Buenos Aires","y":-34.5997104,"x":-58.420461,"precio_ant":null,"cant_calificaciones":0,"promedio":0}},{"type":"Feature","geometry":{"type":"Point","coordinates":[-58.95399,-34.16819]},"properties":{"id":124,"nombreusuario":"An\u00f3nimo","precio":135,"nombre":"--","fecha":"2016-02-04 12:24:12","corte":1,"descripcion":"Asado","calle":"Paso 579-599, Campana, Buenos Aires, Argentina","y":-34.16819,"x":-58.95399,"precio_ant":null,"cant_calificaciones":0,"promedio":0}},{"type":"Feature","geometry":{"type":"Point","coordinates":[-58.42921,-34.61583]},"properties":{"id":125,"nombreusuario":"An\u00f3nimo","precio":95,"nombre":"--","fecha":"2016-02-04 12:26:31","corte":1,"descripcion":"Asado","calle":"Av. la Plata 63, C1184AAA CABA, Argentina","y":-34.61583,"x":-58.42921,"precio_ant":null,"cant_calificaciones":0,"promedio":0}},{"type":"Feature","geometry":{"type":"Point","coordinates":[-58.79366,-34.34923]},"properties":{"id":126,"nombreusuario":"An\u00f3nimo","precio":85,"nombre":"Los Prados","fecha":"2016-02-04 12:29:40","corte":1,"descripcion":"Asado","calle":"Col\u00f3n 455, B1625GGG Bel\u00e9n de Escobar, Buenos Aires, Argentina","y":-34.34923,"x":-58.79366,"precio_ant":null,"cant_calificaciones":0,"promedio":0}},{"type":"Feature","geometry":{"type":"Point","coordinates":[-64.18853,-31.43013]},"properties":{"id":127,"nombreusuario":"An\u00f3nimo","precio":150,"nombre":"Pacman","fecha":"2016-02-04 12:31:50","corte":1,"descripcion":"Asado","calle":"Buenos Aires 1200, C\u00f3rdoba, C\u00f3rdoba, Argentina","y":-31.43013,"x":-64.18853,"precio_ant":null,"cant_calificaciones":0,"promedio":0}},{"type":"Feature","geometry":{"type":"Point","coordinates":[-64.19056,-31.42816]},"properties":{"id":128,"nombreusuario":"An\u00f3nimo","precio":120,"nombre":"Oncativo","fecha":"2016-02-04 12:32:10","corte":1,"descripcion":"Asado","calle":"Angelo de Peredo 80-98, X5000BTB C\u00f3rdoba, C\u00f3rdoba, Argentina","y":-31.42816,"x":-64.19056,"precio_ant":null,"cant_calificaciones":0,"promedio":0}},{"type":"Feature","geometry":{"type":"Point","coordinates":[-58.39174,-34.74292]},"properties":{"id":129,"nombreusuario":"An\u00f3nimo","precio":130,"nombre":"--","fecha":"2016-02-04 12:40:26","corte":1,"descripcion":"Asado","calle":"Belgrano 1502-1600, B1828ACN Banfield, Buenos Aires, Argentina","y":-34.74292,"x":-58.39174,"precio_ant":null,"cant_calificaciones":0,"promedio":0}},{"type":"Feature","geometry":{"type":"Point","coordinates":[-58.4955795,-34.6234685]},"properties":{"id":131,"nombreusuario":"An\u00f3nimo","precio":119,"nombre":"Carniceria y Caba\u00f1a","fecha":"2016-02-04 12:51:50","corte":1,"descripcion":"Asado","calle":"Lobos, Buenos Aires, Ciudad Aut\u00f3noma de Buenos Aires","y":-34.6234685,"x":-58.4955795,"precio_ant":null,"cant_calificaciones":0,"promedio":0}},{"type":"Feature","geometry":{"type":"Point","coordinates":[-57.969780786082,-34.962123324742]},"properties":{"id":132,"nombreusuario":"An\u00f3nimo","precio":80,"nombre":"Carne para todos","fecha":"2016-02-04 12:54:20","corte":1,"descripcion":"Asado","calle":"calle 66 y 141","y":-34.962123324742,"x":-57.969780786082,"precio_ant":null,"cant_calificaciones":0,"promedio":0}},{"type":"Feature","geometry":{"type":"Point","coordinates":[-58.4090647,-34.7384715]},"properties":{"id":133,"nombreusuario":"An\u00f3nimo","precio":120,"nombre":"Carniceria Juancito","fecha":"2016-02-04 12:56:30","corte":1,"descripcion":"Asado","calle":"Hip\u00f3lito Vieytes 1046, Banfield, Buenos Aires","y":-34.7384715,"x":-58.4090647,"precio_ant":null,"cant_calificaciones":0,"promedio":0}},{"type":"Feature","geometry":{"type":"Point","coordinates":[-58.3814508,-34.7435107]},"properties":{"id":134,"nombreusuario":"An\u00f3nimo","precio":135,"nombre":"El sapito","fecha":"2016-02-04 12:56:49","corte":1,"descripcion":"Asado","calle":"Rinc\u00f3n 1001, Banfield, Buenos Aires","y":-34.7435107,"x":-58.3814508,"precio_ant":null,"cant_calificaciones":0,"promedio":0}},{"type":"Feature","geometry":{"type":"Point","coordinates":[-58.4139629,-34.7575723]},"properties":{"id":135,"nombreusuario":"An\u00f3nimo","precio":110,"nombre":"Carniceria el pato","fecha":"2016-02-04 12:57:08","corte":1,"descripcion":"Asado","calle":"Tucum\u00e1n 99, Lomas de Zamora, Buenos Aires","y":-34.7575723,"x":-58.4139629,"precio_ant":null,"cant_calificaciones":0,"promedio":0}},{"type":"Feature","geometry":{"type":"Point","coordinates":[-58.4100773,-34.7332212]},"properties":{"id":136,"nombreusuario":"An\u00f3nimo","precio":118,"nombre":"San cayetano","fecha":"2016-02-04 12:57:32","corte":1,"descripcion":"Asado","calle":"Hernando de Magallanes 511, Remedios de Escalada, Buenos Aires","y":-34.7332212,"x":-58.4100773,"precio_ant":null,"cant_calificaciones":0,"promedio":0}},{"type":"Feature","geometry":{"type":"Point","coordinates":[-58.400011,-34.7253802]},"properties":{"id":137,"nombreusuario":"An\u00f3nimo","precio":120,"nombre":"Los pibes","fecha":"2016-02-04 12:57:57","corte":1,"descripcion":"Asado","calle":"Cnel. Beltr\u00e1n 400, Remedios de Escalada, Buenos Aires","y":-34.7253802,"x":-58.400011,"precio_ant":null,"cant_calificaciones":0,"promedio":0}},{"type":"Feature","geometry":{"type":"Point","coordinates":[-58.413594,-34.7700195]},"properties":{"id":138,"nombreusuario":"An\u00f3nimo","precio":115,"nombre":"Olazabal","fecha":"2016-02-04 12:58:58","corte":1,"descripcion":"Asado","calle":"Olaz\u00e1bal 901, Lomas de Zamora, Buenos Aires","y":-34.7700195,"x":-58.413594,"precio_ant":null,"cant_calificaciones":0,"promedio":0}},{"type":"Feature","geometry":{"type":"Point","coordinates":[-58.4548869,-34.586565]},"properties":{"id":139,"nombreusuario":"An\u00f3nimo","precio":95,"nombre":"La lonja","fecha":"2016-02-04 13:01:05","corte":1,"descripcion":"Asado","calle":"Avenida Federico Lacroze 4171, Buenos Aires, Ciudad Aut\u00f3noma de Buenos Aires","y":-34.586565,"x":-58.4548869,"precio_ant":null,"cant_calificaciones":0,"promedio":0}},{"type":"Feature","geometry":{"type":"Point","coordinates":[-58.401902,-34.623857]},"properties":{"id":140,"nombreusuario":"An\u00f3nimo","precio":105,"nombre":"La lonja","fecha":"2016-02-04 13:01:36","corte":1,"descripcion":"Asado","calle":"Avenida San Juan 2684, Buenos Aires, Ciudad Aut\u00f3noma de Buenos Aires","y":-34.623857,"x":-58.401902,"precio_ant":null,"cant_calificaciones":0,"promedio":0}},{"type":"Feature","geometry":{"type":"Point","coordinates":[-58.458578,-34.5631659]},"properties":{"id":142,"nombreusuario":"An\u00f3nimo","precio":110,"nombre":"La lonja","fecha":"2016-02-04 13:02:04","corte":1,"descripcion":"Asado","calle":"Juramento 2606, Buenos Aires, Ciudad Aut\u00f3noma de Buenos Aires","y":-34.5631659,"x":-58.458578,"precio_ant":null,"cant_calificaciones":1,"promedio":1}},{"type":"Feature","geometry":{"type":"Point","coordinates":[-58.436863,-34.634689]},"properties":{"id":143,"nombreusuario":"An\u00f3nimo","precio":110,"nombre":"La lonja","fecha":"2016-02-04 13:02:18","corte":1,"descripcion":"Asado","calle":"Avenida Asamblea 859, Buenos Aires, Ciudad Aut\u00f3noma de Buenos Aires","y":-34.634689,"x":-58.436863,"precio_ant":null,"cant_calificaciones":0,"promedio":0}},{"type":"Feature","geometry":{"type":"Point","coordinates":[-58.433756,-34.568061]},"properties":{"id":144,"nombreusuario":"An\u00f3nimo","precio":120,"nombre":"El rey de la carne la lonja","fecha":"2016-02-04 13:02:35","corte":1,"descripcion":"Asado","calle":"Teniente Benjam\u00edn Matienzo 1702, Buenos Aires, Ciudad Aut\u00f3noma de Buenos Aires","y":-34.568061,"x":-58.433756,"precio_ant":null,"cant_calificaciones":0,"promedio":0}},{"type":"Feature","geometry":{"type":"Point","coordinates":[-58.5046272,-34.658866]},"properties":{"id":146,"nombreusuario":"An\u00f3nimo","precio":110,"nombre":"La lonja","fecha":"2016-02-04 13:03:36","corte":1,"descripcion":"Asado","calle":"Lisandro de la Torre 2096, Ciudad Aut\u00f3noma de Buenos Aires, Buenos Aires","y":-34.658866,"x":-58.5046272,"precio_ant":null,"cant_calificaciones":0,"promedio":0}},{"type":"Feature","geometry":{"type":"Point","coordinates":[-58.63984,-34.6113977]},"properties":{"id":147,"nombreusuario":"An\u00f3nimo","precio":95,"nombre":"La lonja","fecha":"2016-02-04 13:04:01","corte":1,"descripcion":"Asado","calle":"General Pedro D\u00edaz 550, Villa Tesei, Buenos Aires","y":-34.6113977,"x":-58.63984,"precio_ant":null,"cant_calificaciones":0,"promedio":0}},{"type":"Feature","geometry":{"type":"Point","coordinates":[-58.4151146,-34.6007393]},"properties":{"id":148,"nombreusuario":"An\u00f3nimo","precio":99,"nombre":"La granja converso","fecha":"2016-02-04 13:04:33","corte":1,"descripcion":"Asado","calle":"Lavalle 3501, Buenos Aires, Ciudad Aut\u00f3noma de Buenos Aires","y":-34.6007393,"x":-58.4151146,"precio_ant":null,"cant_calificaciones":0,"promedio":0}},{"type":"Feature","geometry":{"type":"Point","coordinates":[-58.3937566,-34.60538]},"properties":{"id":149,"nombreusuario":"An\u00f3nimo","precio":110,"nombre":"Tabri","fecha":"2016-02-04 13:04:47","corte":1,"descripcion":"Asado","calle":"Riobamba 327, Buenos Aires, Ciudad Aut\u00f3noma de Buenos Aires","y":-34.60538,"x":-58.3937566,"precio_ant":null,"cant_calificaciones":1,"promedio":4}},{"type":"Feature","geometry":{"type":"Point","coordinates":[-58.4416965,-34.6209788]},"properties":{"id":150,"nombreusuario":"An\u00f3nimo","precio":110,"nombre":"Tumbro","fecha":"2016-02-04 13:05:17","corte":1,"descripcion":"Asado","calle":"Av Rivadavia 5430, Buenos Aires, Ciudad Aut\u00f3noma de Buenos Aires","y":-34.6209788,"x":-58.4416965,"precio_ant":null,"cant_calificaciones":0,"promedio":0}},{"type":"Feature","geometry":{"type":"Point","coordinates":[-57.96136,-34.95777]},"properties":{"id":5800,"nombreusuario":"An\u00f3nimo","precio":79.9,"nombre":"Carnicer\u00eda","fecha":"2016-02-24 14:24:27","corte":1,"descripcion":"Asado","calle":"Calle 70 2051-2099, B1910GWI Los Hornos, Buenos Aires, Argentina","y":-34.95777,"x":-57.96136,"precio_ant":null,"cant_calificaciones":0,"promedio":0}},{"type":"Feature","geometry":{"type":"Point","coordinates":[-58.3713099,-34.6232433]},"properties":{"id":152,"nombreusuario":"An\u00f3nimo","precio":95,"nombre":"Alcides","fecha":"2016-02-04 13:06:06","corte":1,"descripcion":"Asado","calle":"Defensa 1315, Buenos Aires, Ciudad Aut\u00f3noma de Buenos Aires","y":-34.6232433,"x":-58.3713099,"precio_ant":null,"cant_calificaciones":0,"promedio":0}},{"type":"Feature","geometry":{"type":"Point","coordinates":[-58.4028,-34.600926]},"properties":{"id":153,"nombreusuario":"An\u00f3nimo","precio":120,"nombre":"Bate aharon","fecha":"2016-02-04 13:06:21","corte":1,"descripcion":"Asado","calle":"Viamonte 2535, Buenos Aires, Ciudad Aut\u00f3noma de Buenos Aires","y":-34.600926,"x":-58.4028,"precio_ant":null,"cant_calificaciones":0,"promedio":0}},{"type":"Feature","geometry":{"type":"Point","coordinates":[-58.4303761,-34.6096533]},"properties":{"id":155,"nombreusuario":"An\u00f3nimo","precio":125,"nombre":"Carniceria tandil","fecha":"2016-02-04 13:06:48","corte":1,"descripcion":"Asado","calle":"R\u00edo de Janeiro 549, Buenos Aires, Ciudad Aut\u00f3noma de Buenos Aires","y":-34.6096533,"x":-58.4303761,"precio_ant":null,"cant_calificaciones":0,"promedio":0}},{"type":"Feature","geometry":{"type":"Point","coordinates":[-58.4648419,-34.6347122]},"properties":{"id":156,"nombreusuario":"An\u00f3nimo","precio":110,"nombre":"Carlitos","fecha":"2016-02-04 13:07:05","corte":1,"descripcion":"Asado","calle":"Avenida Directorio 2701, Buenos Aires, Ciudad Aut\u00f3noma de Buenos Aires","y":-34.6347122,"x":-58.4648419,"precio_ant":null,"cant_calificaciones":1,"promedio":1}},{"type":"Feature","geometry":{"type":"Point","coordinates":[-58.372691,-34.6249884]},"properties":{"id":157,"nombreusuario":"An\u00f3nimo","precio":115,"nombre":"Carniceria san isidro","fecha":"2016-02-04 13:07:19","corte":1,"descripcion":"Asado","calle":"Bol\u00edvar 1460, Buenos Aires, Ciudad Aut\u00f3noma de Buenos Aires","y":-34.6249884,"x":-58.372691,"precio_ant":null,"cant_calificaciones":0,"promedio":0}},{"type":"Feature","geometry":{"type":"Point","coordinates":[-58.3977406,-34.6303598]},"properties":{"id":158,"nombreusuario":"An\u00f3nimo","precio":115,"nombre":"Alfredo","fecha":"2016-02-04 13:07:37","corte":1,"descripcion":"Asado","calle":"Matheu 1786, Buenos Aires, Ciudad Aut\u00f3noma de Buenos Aires","y":-34.6303598,"x":-58.3977406,"precio_ant":null,"cant_calificaciones":0,"promedio":0}},{"type":"Feature","geometry":{"type":"Point","coordinates":[-58.4243189,-34.5776302]},"properties":{"id":159,"nombreusuario":"An\u00f3nimo","precio":120,"nombre":"Carniceria nico","fecha":"2016-02-04 13:07:50","corte":1,"descripcion":"Asado","calle":"Godoy Cruz 2804, Buenos Aires, Ciudad Aut\u00f3noma de Buenos Aires","y":-34.5776302,"x":-58.4243189,"precio_ant":null,"cant_calificaciones":2,"promedio":2}},{"type":"Feature","geometry":{"type":"Point","coordinates":[-58.450135,-34.577596]},"properties":{"id":160,"nombreusuario":"An\u00f3nimo","precio":115,"nombre":"Carniceria lalo","fecha":"2016-02-04 13:08:06","corte":1,"descripcion":"Asado","calle":"Conde 763, Buenos Aires, Ciudad Aut\u00f3noma de Buenos Aires","y":-34.577596,"x":-58.450135,"precio_ant":null,"cant_calificaciones":1,"promedio":5}},{"type":"Feature","geometry":{"type":"Point","coordinates":[-58.4579203,-34.5627585]},"properties":{"id":161,"nombreusuario":"An\u00f3nimo","precio":130,"nombre":"El rosarino","fecha":"2016-02-04 13:08:33","corte":1,"descripcion":"Asado","calle":"Juramento 2527, Buenos Aires, Ciudad Aut\u00f3noma de Buenos Aires","y":-34.5627585,"x":-58.4579203,"precio_ant":null,"cant_calificaciones":1,"promedio":1}},{"type":"Feature","geometry":{"type":"Point","coordinates":[-58.4037764,-34.6075447]},"properties":{"id":162,"nombreusuario":"An\u00f3nimo","precio":110,"nombre":"Antonito","fecha":"2016-02-04 13:09:17","corte":1,"descripcion":"Asado","calle":"Teniente General Juan Domingo Per\u00f3n 2622, Buenos Aires, Ciudad Aut\u00f3noma de Buenos Aires","y":-34.6075447,"x":-58.4037764,"precio_ant":null,"cant_calificaciones":0,"promedio":0}},{"type":"Feature","geometry":{"type":"Point","coordinates":[-58.4191441,-34.6305524]},"properties":{"id":164,"nombreusuario":"An\u00f3nimo","precio":100,"nombre":"Carniceria","fecha":"2016-02-04 13:09:57","corte":1,"descripcion":"Asado","calle":"Pav\u00f3n 3901, Buenos Aires, Ciudad Aut\u00f3noma de Buenos Aires","y":-34.6305524,"x":-58.4191441,"precio_ant":null,"cant_calificaciones":0,"promedio":0}},{"type":"Feature","geometry":{"type":"Point","coordinates":[-63.243645,-32.4104614]},"properties":{"id":168,"nombreusuario":"An\u00f3nimo","precio":99,"nombre":"La buenos Aires ","fecha":"2016-02-04 13:19:22","corte":1,"descripcion":"Asado","calle":"Villa Mar\u00eda, C\u00f3rdoba","y":-32.4104614,"x":-63.243645,"precio_ant":null,"cant_calificaciones":0,"promedio":0}},{"type":"Feature","geometry":{"type":"Point","coordinates":[-58.4026589,-34.6366221]},"properties":{"id":169,"nombreusuario":"An\u00f3nimo","precio":129,"nombre":"Los Cardoso","fecha":"2016-02-04 13:19:23","corte":1,"descripcion":"Asado","calle":"Avenida Caseros 2835, Ciudad Aut\u00f3noma de Buenos Aires, Buenos Aires","y":-34.6366221,"x":-58.4026589,"precio_ant":null,"cant_calificaciones":0,"promedio":0}},{"type":"Feature","geometry":{"type":"Point","coordinates":[-62.6145058,-39.2592545]},"properties":{"id":171,"nombreusuario":"An\u00f3nimo","precio":120,"nombre":"El hiper","fecha":"2016-02-04 13:19:59","corte":1,"descripcion":"Asado","calle":"Mayor Buratovich, Buenos Aires","y":-39.2592545,"x":-62.6145058,"precio_ant":null,"cant_calificaciones":0,"promedio":0}},{"type":"Feature","geometry":{"type":"Point","coordinates":[-58.313118860722,-34.6946055308]},"properties":{"id":174,"nombreusuario":"An\u00f3nimo","precio":115,"nombre":"Super Onsari","fecha":"2016-02-04 13:20:32","corte":1,"descripcion":"Asado","calle":"Fabian Onsari 50, B1875CVG Wilde, Buenos Aires, Argentina","y":-34.6946055308,"x":-58.313118860722,"precio_ant":null,"cant_calificaciones":0,"promedio":0}},{"type":"Feature","geometry":{"type":"Point","coordinates":[-65.0515761,-43.3191776]},"properties":{"id":175,"nombreusuario":"An\u00f3nimo","precio":180,"nombre":"Playa UnionChubut","fecha":"2016-02-04 13:20:44","corte":1,"descripcion":"Asado","calle":"Canonico Vivaldi 375-423, Playa Union, Chubut, Argentina","y":-43.3191776,"x":-65.0515761,"precio_ant":null,"cant_calificaciones":0,"promedio":0}},{"type":"Feature","geometry":{"type":"Point","coordinates":[-58.8468764,-27.4744775]},"properties":{"id":178,"nombreusuario":"An\u00f3nimo","precio":89,"nombre":"Supermax","fecha":"2016-02-04 13:21:04","corte":1,"descripcion":"Asado","calle":"Avenida 3 De Abril 1047, Corrientes","y":-27.4744775,"x":-58.8468764,"precio_ant":null,"cant_calificaciones":0,"promedio":0}},{"type":"Feature","geometry":{"type":"Point","coordinates":[-63.7532876,-35.653389]},"properties":{"id":179,"nombreusuario":"An\u00f3nimo","precio":70,"nombre":"La  anonima","fecha":"2016-02-04 13:21:10","corte":1,"descripcion":"Asado","calle":"Calle 7, General Pico, La Pampa","y":-35.653389,"x":-63.7532876,"precio_ant":null,"cant_calificaciones":0,"promedio":0}},{"type":"Feature","geometry":{"type":"Point","coordinates":[-68.82348,-32.90423]},"properties":{"id":682,"nombreusuario":"An\u00f3nimo","precio":140,"nombre":"Granja Benedetti","fecha":"2016-02-05 12:23:23","corte":1,"descripcion":"Asado","calle":"Lamadrid 1302-1400, M5521JJQ, Mendoza, Argentina","y":-32.90423,"x":-68.82348,"precio_ant":null,"cant_calificaciones":0,"promedio":0}},{"type":"Feature","geometry":{"type":"Point","coordinates":[-64.29757,-36.63116]},"properties":{"id":183,"nombreusuario":"An\u00f3nimo","precio":70,"nombre":"La Anonima","fecha":"2016-02-04 13:21:59","corte":1,"descripcion":"Asado","calle":"Per\u00fa 1099-1299, L6300GEQ Santa Rosa, La Pampa, Argentina","y":-36.63116,"x":-64.29757,"precio_ant":null,"cant_calificaciones":0,"promedio":0}},{"type":"Feature","geometry":{"type":"Point","coordinates":[-58.557725882401,-34.442838051778]},"properties":{"id":185,"nombreusuario":"An\u00f3nimo","precio":115,"nombre":"La estrella ","fecha":"2016-02-04 13:22:05","corte":1,"descripcion":"Asado","calle":"San Mart\u00edn 565, Loma verde, general paz, ranchos, Buenos Aires, Argentina","y":-34.442838051778,"x":-58.557725882401,"precio_ant":null,"cant_calificaciones":0,"promedio":0}},{"type":"Feature","geometry":{"type":"Point","coordinates":[-58.764415,-34.411092]},"properties":{"id":186,"nombreusuario":"An\u00f3nimo","precio":97,"nombre":"Juan","fecha":"2016-02-04 13:22:09","corte":1,"descripcion":"Asado","calle":"Bah\u00eda Blanca 700-798, B1620EJF Maquinista Savio, Buenos Aires, Argentina","y":-34.411092,"x":-58.764415,"precio_ant":null,"cant_calificaciones":0,"promedio":0}},{"type":"Feature","geometry":{"type":"Point","coordinates":[-58.18467,-34.80417]},"properties":{"id":189,"nombreusuario":"An\u00f3nimo","precio":115,"nombre":"Supermercado Staniscia","fecha":"2016-02-04 13:22:28","corte":1,"descripcion":"Asado","calle":"Calle 51 B 3500-3598, B1885DDD Guillermo Hudson, Buenos Aires, Argentina","y":-34.80417,"x":-58.18467,"precio_ant":null,"cant_calificaciones":0,"promedio":0}},{"type":"Feature","geometry":{"type":"Point","coordinates":[-58.1862196,-26.1545997]},"properties":{"id":190,"nombreusuario":"An\u00f3nimo","precio":135,"nombre":"Supermercado C\u00e1ceres ","fecha":"2016-02-04 13:22:35","corte":1,"descripcion":"Asado","calle":"Avenida Independencia 450, Formosa","y":-26.1545997,"x":-58.1862196,"precio_ant":null,"cant_calificaciones":0,"promedio":0}},{"type":"Feature","geometry":{"type":"Point","coordinates":[-58.027263,-31.3880998]},"properties":{"id":193,"nombreusuario":"An\u00f3nimo","precio":199,"nombre":"Supermercado Modelo","fecha":"2016-02-04 13:22:48","corte":1,"descripcion":"Asado","calle":"A. del Valle 393 , Concordia, Entre R\u00edos, Argentina","y":-31.3880998,"x":-58.027263,"precio_ant":null,"cant_calificaciones":1,"promedio":2}},{"type":"Feature","geometry":{"type":"Point","coordinates":[-57.578150135304,-38.002932243227]},"properties":{"id":488,"nombreusuario":"An\u00f3nimo","precio":100,"nombre":"Mercado libra","fecha":"2016-02-04 19:57:55","corte":1,"descripcion":"Asado","calle":"","y":-38.002932243227,"x":-57.578150135304,"precio_ant":null,"cant_calificaciones":0,"promedio":0}},{"type":"Feature","geometry":{"type":"Point","coordinates":[-71.4057245,-41.1161007]},"properties":{"id":198,"nombreusuario":"An\u00f3nimo","precio":169,"nombre":"Supermercado todo","fecha":"2016-02-04 13:23:18","corte":1,"descripcion":"Asado","calle":"Av. Exequiel Bustillo, San Carlos de Bariloche, R\u00edo Negro","y":-41.1161007,"x":-71.4057245,"precio_ant":null,"cant_calificaciones":0,"promedio":0}},{"type":"Feature","geometry":{"type":"Point","coordinates":[-67.9924328,-38.936446]},"properties":{"id":199,"nombreusuario":"An\u00f3nimo","precio":189,"nombre":"Santa rosa","fecha":"2016-02-04 13:23:26","corte":1,"descripcion":"Asado","calle":"Sarmiento y Tucum\u00e1n General Roca, R\u00edo Negro","y":-38.936446,"x":-67.9924328,"precio_ant":null,"cant_calificaciones":0,"promedio":0}},{"type":"Feature","geometry":{"type":"Point","coordinates":[-65.25198,-26.838565]},"properties":{"id":201,"nombreusuario":"An\u00f3nimo","precio":120,"nombre":"Francisco","fecha":"2016-02-04 13:23:38","corte":1,"descripcion":"Asado","calle":"J. Quinteros 1141, T4002MFK San Miguel de Tucum\u00e1n, Tucum\u00e1n, Argentina","y":-26.838565,"x":-65.25198,"precio_ant":null,"cant_calificaciones":0,"promedio":0}},{"type":"Feature","geometry":{"type":"Point","coordinates":[-61.2540208,-32.8495266]},"properties":{"id":203,"nombreusuario":"An\u00f3nimo","precio":84,"nombre":"La tana","fecha":"2016-02-04 13:23:48","corte":1,"descripcion":"Asado","calle":"Correa, Santa Fe","y":-32.8495266,"x":-61.2540208,"precio_ant":null,"cant_calificaciones":0,"promedio":0}},{"type":"Feature","geometry":{"type":"Point","coordinates":[-60.3208322,-36.9217003]},"properties":{"id":204,"nombreusuario":"An\u00f3nimo","precio":89,"nombre":"El ruso","fecha":"2016-02-04 13:23:50","corte":1,"descripcion":"Asado","calle":"Calle 18 Bis, Olavarr\u00eda, Buenos Aires","y":-36.9217003,"x":-60.3208322,"precio_ant":null,"cant_calificaciones":0,"promedio":0}},{"type":"Feature","geometry":{"type":"Point","coordinates":[-67.58549,-39.03359]},"properties":{"id":205,"nombreusuario":"An\u00f3nimo","precio":200,"nombre":"Autoservicio Don Juan","fecha":"2016-02-04 13:23:52","corte":1,"descripcion":"Asado","calle":"Misiones, R\u00edo Negro, Argentina","y":-39.03359,"x":-67.58549,"precio_ant":null,"cant_calificaciones":0,"promedio":0}},{"type":"Feature","geometry":{"type":"Point","coordinates":[-58.50125,-34.70909]},"properties":{"id":206,"nombreusuario":"An\u00f3nimo","precio":54,"nombre":"Mercado Central","fecha":"2016-02-04 13:24:13","corte":1,"descripcion":"Asado","calle":"Av. de Circunvalacion, Tapiales, Buenos Aires, Argentina","y":-34.70909,"x":-58.50125,"precio_ant":null,"cant_calificaciones":0,"promedio":0}},{"type":"Feature","geometry":{"type":"Point","coordinates":[-62.5450728,-36.2787436]},"properties":{"id":209,"nombreusuario":"An\u00f3nimo","precio":80,"nombre":"Vegavis ","fecha":"2016-02-04 13:24:23","corte":1,"descripcion":"Asado","calle":"30 de Agosto, Buenos Aires, Argentina","y":-36.2787436,"x":-62.5450728,"precio_ant":null,"cant_calificaciones":0,"promedio":0}},{"type":"Feature","geometry":{"type":"Point","coordinates":[-61.4288911,-33.9392754]},"properties":{"id":210,"nombreusuario":"An\u00f3nimo","precio":80,"nombre":"Villa ca\u00f1sa","fecha":"2016-02-04 13:24:24","corte":1,"descripcion":"Asado","calle":"Unnamed Road, Santa Fe, Argentina","y":-33.9392754,"x":-61.4288911,"precio_ant":null,"cant_calificaciones":0,"promedio":0}},{"type":"Feature","geometry":{"type":"Point","coordinates":[-58.8113705,-27.4675479]},